[
  {
    "status": "OK", 
    "html_attributions": [
      "Listings by <a href=\"http://www.telelistas.net/\">Telelistas</a>"
    ], 
    "results": [
      {
        "name": "Zona 37", 
        "reference": "CnRuAAAAWTfZkAPYxLrS37PErCOJqCiQplmtCiO_d4nGhjbGvhboVNDCf4R2JqM_RSvmZQwzdN9se0jMGu0AXaLpx-dEVN_0Os5T_C2bpcpG95Di5URvz719TymNTQB5G2Cq-jm5N5ptoEv2trKhsWp73BsnxxIQNujhLjp8qoIJFLikOG9mshoURXrdrXlME4Ye5jnRsOQN4vb1LUQ", 
        "geometry": {
          "location": {
            "lat": -23.4005347, 
            "lng": -51.8998371
          }, 
          "viewport": {
            "northeast": {
              "lat": -23.3861241, 
              "lng": -51.8743202
            }, 
            "southwest": {
              "lat": -23.4235231, 
              "lng": -51.9151874
            }
          }
        }, 
        "vicinity": "Zona 37", 
        "id": "8eb03761c0a75c32f47521abfcd29b983afbdc0b", 
        "types": [
          "sublocality", 
          "political"
        ], 
        "icon": "http://maps.gstatic.com/mapfiles/place_api/icons/geocode-71.png"
      }, 
      {
        "name": "Escola Eximius Ensino Fundamental", 
        "reference": "CoQBfwAAADfQjDMva9QmK1gcKkxGv0lExcRgx_Z6hqEhlMhZH3PXf_W9TMatrjB-n5_hxjZuKxBbPVOa0RdrM6l0It277FeAvtSqyS9yfIVKJ1r-I2iFjzITPkIFrhNlRIQZhVkUo0hQKsM_08PHAQJSXeyKvsrZZUHcK1m2PpuZvfSbukqsEhBhKjNb7y7VIH6y0hocjNLIGhT8pAZs3GCbXWkR3s0QvnrkK5GpHg", 
        "geometry": {
          "location": {
            "lat": -23.393726, 
            "lng": -51.892623
          }
        }, 
        "vicinity": "Rua Rio Maca\u00fabas, 500 - Parque Residencial T, Maring\u00e1", 
        "id": "68d7112eddda82b82908ead01153f6858238fc00", 
        "types": [
          "school", 
          "establishment"
        ], 
        "icon": "http://maps.gstatic.com/mapfiles/place_api/icons/generic_business-71.png"
      }, 
      {
        "name": "Vidra\u00e7aria Atual Vidros e Persianas", 
        "reference": "CpQBgQAAAAFeMcMzHu6xmpnauAi2FWNb1m5Rm444X0NKzUiRpFGprYUUIN1sRQqeG8LgHSU_rJocv03eGk2mPWxZcqt_KwlpVIBUuDwgWUzWuf4-KyA1dDkBdlCJ_jZBNLSZoGOBF54WiiNP-Y9CuuiOsSS9c43aR49HV-5zTQzf_9qnDajxgIDwMap6_N5Ut3ai1VlTbRIQuhinfyfCHGJm-icTiPoJlRoU_hP8A_CclxP0LdD8hfA_ycCSHhw", 
        "geometry": {
          "location": {
            "lat": -23.392879, 
            "lng": -51.895723
          }
        }, 
        "vicinity": "Rua Rio S\u00e3o Francisco, 1284 - Conj. Res. Branca Vieira, Maring\u00e1", 
        "id": "af2c02531d0475d0d2601f4d6fdcd94726fcf8ec", 
        "types": [
          "store", 
          "establishment"
        ], 
        "icon": "http://maps.gstatic.com/mapfiles/place_api/icons/generic_business-71.png"
      }, 
      {
        "name": "Maring\u00e1", 
        "reference": "CnRvAAAAaekvXjYNA_bWKrvUSIOiQqTAm9PaItPmWFrZA8K2M395uDZoVQHUcZNX4WKfzTLuaBmBRSgJLVeIuuWcwMGaoSD3LSVVPOC6vawYkZqevlszzRZ8vd7-Uw334Irv3zER9FvEivDMICcn6broBJO0chIQ7kuW2jUe-i6WdZs3HQtz5hoUo8E5saOCH_dn2qzrBiiZMJgQOGM", 
        "geometry": {
          "location": {
            "lat": -23.427304, 
            "lng": -51.9375047
          }, 
          "viewport": {
            "northeast": {
              "lat": -23.25344, 
              "lng": -51.835463
            }, 
            "southwest": {
              "lat": -23.558014, 
              "lng": -52.1011961
            }
          }
        }, 
        "vicinity": "Maring\u00e1", 
        "id": "24b5b48c412af5805a55e4237119cc41424a7773", 
        "types": [
          "locality", 
          "political"
        ], 
        "icon": "http://maps.gstatic.com/mapfiles/place_api/icons/geocode-71.png"
      }
    ]
  }, 
  {
    "status": "OK", 
    "html_attributions": [
      "Listings by <a href=\"http://www.telelistas.net/\">Telelistas</a>"
    ], 
    "results": [
      {
        "name": "Zona 46", 
        "reference": "CnRuAAAADO-I6zm9vzKGaXOPgbDRticYikyQrO_KcWy71Tvh9650vV0EL2m0ELls7zbSGBpgwF9NTqQ_Gh7Os55xQ2-uqhKUxBPNiXN-YHkBJ8DLi-t_uWCGi00OdUXO2xabdMlEBIadElZNWm_oUEN9EYYMbRIQNPYaEVQwRfI74T1Z-BWuaxoUVacwS79gQCjMnKcqYOt8m9yXNJg", 
        "geometry": {
          "location": {
            "lat": -23.386702, 
            "lng": -51.9130553
          }, 
          "viewport": {
            "northeast": {
              "lat": -23.380512, 
              "lng": -51.8942602
            }, 
            "southwest": {
              "lat": -23.400035, 
              "lng": -51.91954029999999
            }
          }
        }, 
        "vicinity": "Zona 46", 
        "id": "96e48733bd8e9bedccb22ef8385d52b39c60b0f3", 
        "types": [
          "sublocality", 
          "political"
        ], 
        "icon": "http://maps.gstatic.com/mapfiles/place_api/icons/geocode-71.png"
      }, 
      {
        "name": "Telemensagem Rede Vida", 
        "reference": "CoQBdAAAAOhRXzkGveG8Mvw4B1nlef0VVlAoXxKGmazXafzYw4al-Zw1cO04qk8LwKgJQU7YEhALfptgjQNjtsyZC1K9Ih6hErRUGZIlOj9eH0smYQfdwgxWPF65Vl-JpR0ryuxMq9V-EsPjo2pDN1o7sL28-F489cs2RGwgwAQAByAq5jWMEhBauFFbG2as48B_3VKWjQcrGhSIZpg74corkvizD9GgrUDCIsVJ4A", 
        "geometry": {
          "location": {
            "lat": -23.388627, 
            "lng": -51.89825
          }
        }, 
        "vicinity": "Rua Itaipu, 58 - Maring\u00e1", 
        "id": "2e2c2a6756715427a92e13bc7a876f8819cf6bb2", 
        "types": [
          "establishment"
        ], 
        "icon": "http://maps.gstatic.com/mapfiles/place_api/icons/generic_business-71.png"
      }, 
      {
        "name": "Buffet Fest Evandro", 
        "reference": "CoQBcQAAAINzjbbBK-chG2XETTeDMYPSNMBBAVOo-epQv7kX7O-IgUEKuGYJBR4lH1ozlHgGl2dgNXd6PmEVW-Ic1jZGOc0aw5eTKMhfSocYsRk-5pVETQALe5X1nKhwWN3lVG3vb8oi54_aOo1LkMioJFc0Sdvstn1lF_4LzHWrBmi3ibL5EhBsGHrQy75tMZCX4q2KReCMGhRRhM-oZEswI8hFHTtsmFAawNfwTw", 
        "geometry": {
          "location": {
            "lat": -23.388783, 
            "lng": -51.897875
          }
        }, 
        "vicinity": "Rua Itaipu, 18 - Ebenezer, Maring\u00e1", 
        "id": "30349200858030b2b76e7646eb551cb1fe6e8079", 
        "types": [
          "establishment"
        ], 
        "icon": "http://maps.gstatic.com/mapfiles/place_api/icons/generic_business-71.png"
      }, 
      {
        "name": "Mudan\u00e7as Brasil", 
        "reference": "CnRtAAAAZfg6ksWerQcKwN442qNgNojqTp2yhj5MrlHbg4RB_VFCxJEfMrA0zwhIT324HAOGY-Jrbiq63qjmio6snfuqmCOS9JdxaUx2GNAfptMMsqcBnd5o0dc3NFuVMUPIanpjXYeoMsJCA1PmI5MQCEIPORIQUlZCnFl9NlvJF4ZU5iMnjRoUIBlErj7PwwDyFaaA_WTQwfonWFU", 
        "geometry": {
          "location": {
            "lat": -23.391472, 
            "lng": -51.900306
          }
        }, 
        "vicinity": "Rua Rio Purus, 36 - Lot Batel, Maring\u00e1", 
        "id": "1a6afe5c6f1dff9f3d5219031b1a907622d794f2", 
        "types": [
          "storage", 
          "establishment"
        ], 
        "icon": "http://maps.gstatic.com/mapfiles/place_api/icons/generic_business-71.png"
      }, 
      {
        "name": "Omega Salgados", 
        "reference": "CnRrAAAAAO6ZGIbrPdG2XNpJ4cyH9sbbhYiJydPrTq4CUwTs_LmoxnVVlKD64qJY1XyFg5TQ1fEmUXygfohBe5EnSkguQm5YVsc_xtiNdWlgxlZAPc6xTOfyZBXAtdSHstPAIdsjL5jl3yvqkg_uqk_NZvVpWBIQT5W2WX_Xk5gSG1UxwwlsaxoU8Aeg0KyYpYzrSHrEoxeg-A2rCH0", 
        "geometry": {
          "location": {
            "lat": -23.388276, 
            "lng": -51.899542
          }
        }, 
        "opening_hours": {
          "open_now": false
        }, 
        "vicinity": "Rua Itaipu, 75 - Zona 46, Maring\u00e1", 
        "id": "10a460eb96453d08f87fef701a9d6a356d7d708b", 
        "types": [
          "establishment"
        ], 
        "icon": "http://maps.gstatic.com/mapfiles/place_api/icons/generic_business-71.png"
      }, 
      {
        "name": "Mga Alarmes e Sistemas de Seguran\u00e7a", 
        "reference": "CpQBggAAAKxV5iz9asZYq8Bau5zF6A2DVByp9ffxMBwwGwJYmy7rGAxhuVYtyLjf1QrGMPXnQ9Z7UDnb24QrMPedA_ZfnCR1h6mnOp9uyU26NMylaK7fWiWCBTO91IVB_F0W8YFH9vTQmFAct0pQoUABV62d8kK7YsmjLYmW8xps2In3dQkDLMcXgxOwphadR801RFnp9hIQuSYo3f_v5wUCmMnVwmFXHBoU3-hmCpYvuHwVXWqo_XjIyd6EZTs", 
        "geometry": {
          "location": {
            "lat": -23.389727, 
            "lng": -51.902173
          }
        }, 
        "vicinity": "Rua Pion. Guarino Augusto Basseto, 1414 - Zona 46, Maring\u00e1", 
        "id": "f58b655ebf272e92a73e4c21560a9b6d9619b7bc", 
        "types": [
          "establishment"
        ], 
        "icon": "http://maps.gstatic.com/mapfiles/place_api/icons/generic_business-71.png"
      }, 
      {
        "name": "Vidra\u00e7aria Dione", 
        "reference": "CnRuAAAA10YXRf_FW65jIkxmYsOmjDozTI9nsQHYzaX4o9DE0RSxzRSJ2012h2fd8hJebuUJ71g8bcwckIb_kCkLsfcbkgUl_pY8upWCB9NbW1bB6Qd_9TTiT-80kMRz8nT8uKQ2N34W54my1fHwQ60ErXqtIBIQ9FLujxQbN90f_cFBqhmLTxoUQXaTURSaVM6uX-Bt1KVollYSsd8", 
        "geometry": {
          "location": {
            "lat": -23.389667, 
            "lng": -51.900434
          }
        }, 
        "vicinity": "Rua Pion. Porphirio de Moraes, 19 - Cj Res R Bernardi, Maring\u00e1", 
        "id": "63a88a95326de4969f772730dcf6c5beed6cf418", 
        "types": [
          "store", 
          "establishment"
        ], 
        "icon": "http://maps.gstatic.com/mapfiles/place_api/icons/generic_business-71.png"
      }, 
      {
        "name": "Mudan\u00e7as Irineu", 
        "reference": "CnRuAAAAfC0MqzsyPSVtRGXdn1I7fksEPdAWu7m9mj9mW6l1ufZEn0sYQnNVqS_Q1RzGebA5EToV2ZvnwzlwPI6c5LSTmN3F-O6S3u13g4AYoFUjVzo_H8-hw9gP5oe87EE0Q6mlGAwxmhvArpNZ0PJZzW49MBIQxN8UbKy-DAgWNoMneF-fXRoUPdF6YjTP9Che1hhokqDnPCHYUCE", 
        "geometry": {
          "location": {
            "lat": -23.391408, 
            "lng": -51.900425
          }
        }, 
        "vicinity": "Rua Rio Purus, 18 - Lot Batel, Maring\u00e1", 
        "id": "eb0fcba37b0351f7d05e08d6ff42a94c8c7dea3d", 
        "types": [
          "storage", 
          "establishment"
        ], 
        "icon": "http://maps.gstatic.com/mapfiles/place_api/icons/generic_business-71.png"
      }, 
      {
        "name": "Onimidia", 
        "reference": "CnRmAAAA2LCN0PHjm3YewDlKrDa_iYamUrocpO15NqeOC2Acu_U8BHSWr6P9RouwSmARg2eG0ivb493q3YC1RJx7RoHFMM7d74Tfhuvw5I7O_vuMsQYs-sCLxoLHJMUrcqpwWDTK3yu7kkv1sRZhSzU4OnOsmRIQeo9Gpa5h7NJfGXcXW7890RoUgbuqux3AqWOBlEZTH45Y_Erw0Ok", 
        "geometry": {
          "location": {
            "lat": -23.388402, 
            "lng": -51.901701
          }
        }, 
        "vicinity": "Rua Foz do Areia, 244 - Ebenezer, Maring\u00e1", 
        "id": "4beca7e39fee0587498b7b24ac5eec85ba0c857b", 
        "types": [
          "establishment"
        ], 
        "icon": "http://maps.gstatic.com/mapfiles/place_api/icons/generic_business-71.png"
      }, 
      {
        "name": "Zona 37", 
        "reference": "CnRuAAAAG9Dxp8j3t4kpXQllSokJkzfAhzV1WP1pVGki2Ar-poLBBJrsaMAcz9v9FpZ3FNF2dD_-J_FIV4AdChT9W3ubYQC4icWeDxcCllyqWUgiWVC0sVyLhs9wFY4ZM_TiTJ0nokmuHhOyno9nEnQv_40WoxIQQgLyJ3NPvJkLa0rM69w5oBoUL9ooL2JUuztfhkFwSGjcmZ46XNs", 
        "geometry": {
          "location": {
            "lat": -23.4005347, 
            "lng": -51.8998371
          }, 
          "viewport": {
            "northeast": {
              "lat": -23.3861241, 
              "lng": -51.8743202
            }, 
            "southwest": {
              "lat": -23.4235231, 
              "lng": -51.9151874
            }
          }
        }, 
        "vicinity": "Zona 37", 
        "id": "8eb03761c0a75c32f47521abfcd29b983afbdc0b", 
        "types": [
          "sublocality", 
          "political"
        ], 
        "icon": "http://maps.gstatic.com/mapfiles/place_api/icons/geocode-71.png"
      }
    ]
  }, 
  {
    "status": "OK", 
    "html_attributions": [
      "Listings by <a href=\"http://www.telelistas.net/\">Telelistas</a>"
    ], 
    "results": [
      {
        "name": "Zona 46", 
        "reference": "CnRuAAAAVdswBz52aB8VdrxcRk6hstLtimoZAcTknXY1dxm6qXX8HEHrzktgdZQn2jZGp03T00UTfyTYBODWZ5JwTM8eDnkeTwA21R07-sQBeZqgjfdh5NP7XTlUowtnkomFyL1Cie_OW5pKsOxjKwAK6quwBhIQPGh-GV5nG1i0K0H__1bXFxoU5KqOEdsd09v057unUZ3hi6CcF_Y", 
        "geometry": {
          "location": {
            "lat": -23.386702, 
            "lng": -51.9130553
          }, 
          "viewport": {
            "northeast": {
              "lat": -23.380512, 
              "lng": -51.8942602
            }, 
            "southwest": {
              "lat": -23.400035, 
              "lng": -51.91954029999999
            }
          }
        }, 
        "vicinity": "Zona 46", 
        "id": "96e48733bd8e9bedccb22ef8385d52b39c60b0f3", 
        "types": [
          "sublocality", 
          "political"
        ], 
        "icon": "http://maps.gstatic.com/mapfiles/place_api/icons/geocode-71.png"
      }, 
      {
        "name": "Telemensagem Rede Vida", 
        "reference": "CoQBdAAAAGuzSN_2qHUEgpBj8PEuev6aM9Uv7LwF-t4kUhT-lgaiycbqrmJtdzUE35owL-ZXU_E9QClLZyDSiFww19Ty_VikiHbrycMge9HBTmMWsZZy-Dr_XPcacEPZv_RgHBSnmOWCWTznox-tXPbH-edbztRM8B1UJX7spFj6MBxsY0riEhCdJ3jz_P-UFzFZhN5YjoQxGhT5tcvB5rwZvc-CXhhaw9BeDFMf2Q", 
        "geometry": {
          "location": {
            "lat": -23.388627, 
            "lng": -51.89825
          }
        }, 
        "vicinity": "Rua Itaipu, 58 - Maring\u00e1", 
        "id": "2e2c2a6756715427a92e13bc7a876f8819cf6bb2", 
        "types": [
          "establishment"
        ], 
        "icon": "http://maps.gstatic.com/mapfiles/place_api/icons/generic_business-71.png"
      }, 
      {
        "name": "Buffet Fest Evandro", 
        "reference": "CoQBcQAAAD1vO_Qv_VmhJIbpagaZ4SI5Rif-zlUkF0FtudSCf47126nNcb-aDIKcV_mSTnenOzwA1JO67pq0mp9ijXgDBktLL6gRPtJ8zZXont_FLPaitkaEZ_MbYklp3ltJ2otcJvOWuKrhWkJ3lyKv36nfbtxEwRXs2JoVi1t84Mb26kD-EhCEE5hdFq9uHWgw7ZfrY5l8GhQN98bRewZLMtMkrj2bqjT94Ca3pQ", 
        "geometry": {
          "location": {
            "lat": -23.388783, 
            "lng": -51.897875
          }
        }, 
        "vicinity": "Rua Itaipu, 18 - Ebenezer, Maring\u00e1", 
        "id": "30349200858030b2b76e7646eb551cb1fe6e8079", 
        "types": [
          "establishment"
        ], 
        "icon": "http://maps.gstatic.com/mapfiles/place_api/icons/generic_business-71.png"
      }, 
      {
        "name": "Zona 37", 
        "reference": "CnRuAAAA6UAfBdowfjMgl3QFH3bdc3SMJTXF4wr16tsiXqOlVLX1fn0UB2nZ-THMBojyeTZJ685Xv3Z3k-EktagOYQOKnqUy0jgw2riLrUEeVReCPKQNzFVU0EReMpV7KjzEyYeJv_RIHpDgyMp0LqoG2aRqrhIQwpc66zsDGT_ch3x070wmMxoUeT_l_nX6aHQvXpjwiwUY78LKEAc", 
        "geometry": {
          "location": {
            "lat": -23.4005347, 
            "lng": -51.8998371
          }, 
          "viewport": {
            "northeast": {
              "lat": -23.3861241, 
              "lng": -51.8743202
            }, 
            "southwest": {
              "lat": -23.4235231, 
              "lng": -51.9151874
            }
          }
        }, 
        "vicinity": "Zona 37", 
        "id": "8eb03761c0a75c32f47521abfcd29b983afbdc0b", 
        "types": [
          "sublocality", 
          "political"
        ], 
        "icon": "http://maps.gstatic.com/mapfiles/place_api/icons/geocode-71.png"
      }
    ]
  }, 
  {
    "status": "OK", 
    "html_attributions": [
      "Listings by <a href=\"http://www.telelistas.net/\">Telelistas</a>"
    ], 
    "results": [
      {
        "name": "Zona 37", 
        "reference": "CnRvAAAAxadaYgRmkYoEmNLcJQOFwFnUlzAtUmcC_KHLDGriRlLK4PLld-8Zu3RNVxnWp9AobgdKzfsguMZEKJ-gYif08GnZlSbJbNn8exfUPpWxKCKI2ETlITTdCUJoRrTtdKbAtIltweeCVaaputHgc0l7YRIQtThWdAUzmTrRF4polC7JhxoU9d8PJnYwxH44o6SpLftr1oxR-Jo", 
        "geometry": {
          "location": {
            "lat": -23.4005347, 
            "lng": -51.8998371
          }, 
          "viewport": {
            "northeast": {
              "lat": -23.3861241, 
              "lng": -51.8743202
            }, 
            "southwest": {
              "lat": -23.4235231, 
              "lng": -51.9151874
            }
          }
        }, 
        "vicinity": "Zona 37", 
        "id": "8eb03761c0a75c32f47521abfcd29b983afbdc0b", 
        "types": [
          "sublocality", 
          "political"
        ], 
        "icon": "http://maps.gstatic.com/mapfiles/place_api/icons/geocode-71.png"
      }, 
      {
        "name": "Escola Eximius Ensino Fundamental", 
        "reference": "CoQBgAAAAJkX8u5xBMwLoYUveKcU9V49v_QBQaXe9xNkJS_MGoDEJt7Beiv10AZnUAXRP6hggYEVG3Egn3D-Xiy9fwNbxvhUrhqhtkQhXNdHkz8pdpO8EbRuKQIhkDRAb1e_t7rgSVyh6P-q6_K0kjgvVU-J2jsxthr7uZzKLiU8_0AmBEGDEhD6vel7eWDjOoG54B5dWGxyGhQx6kACIKvIOEcMkX79QFflY1CNXw", 
        "geometry": {
          "location": {
            "lat": -23.393726, 
            "lng": -51.892623
          }
        }, 
        "vicinity": "Rua Rio Maca\u00fabas, 500 - Parque Residencial T, Maring\u00e1", 
        "id": "68d7112eddda82b82908ead01153f6858238fc00", 
        "types": [
          "school", 
          "establishment"
        ], 
        "icon": "http://maps.gstatic.com/mapfiles/place_api/icons/generic_business-71.png"
      }, 
      {
        "name": "Biscuit", 
        "reference": "CnRmAAAAm1Z0EuZdAXPGkTP7Ue_qtIOK0LVGi_Wlie43AciIfOsawmJNAfZSjL1TGYbIKf_yBWeOmcC16vs3027tAu3bmBp8jE9U8Opi-DuNherjb7sN_z7Wf-B_RJW72bcbTZciIKgLlL_I_N6p3zac5Vrj7RIQg8lNOHW8FVETPQie1q0HYhoUa-XseLMsAbotQ3ykicqHol3PnR8", 
        "geometry": {
          "location": {
            "lat": -23.393551, 
            "lng": -51.890814
          }
        }, 
        "vicinity": "Rua Cooleiros, 142 - Zona 37, Maring\u00e1", 
        "id": "371e761b37bcca79ebf09679a11b4b61ce3e9762", 
        "types": [
          "establishment"
        ], 
        "icon": "http://maps.gstatic.com/mapfiles/place_api/icons/generic_business-71.png"
      }, 
      {
        "name": "Maring\u00e1", 
        "reference": "CnRwAAAAxlKAY30Ty_AK8YbHQgwRMk5hBB2mo-8xFKIeLiB-wnF_JDik3ozJpZke0vesEGoHhzwXihrhDbB9r5vEnqNX2wCkqviA5kYGhnQr7ZHRSkAndytkGwBM_7ZNlI6Dy0xQH_QykMc8d9CKIUnwbkzrDRIQzCbqVFdT17lsa30vA3dw3BoUHFjg2l6CFv0zPqFHgDowsKr5b-g", 
        "geometry": {
          "location": {
            "lat": -23.427304, 
            "lng": -51.9375047
          }, 
          "viewport": {
            "northeast": {
              "lat": -23.25344, 
              "lng": -51.835463
            }, 
            "southwest": {
              "lat": -23.558014, 
              "lng": -52.1011961
            }
          }
        }, 
        "vicinity": "Maring\u00e1", 
        "id": "24b5b48c412af5805a55e4237119cc41424a7773", 
        "types": [
          "locality", 
          "political"
        ], 
        "icon": "http://maps.gstatic.com/mapfiles/place_api/icons/geocode-71.png"
      }
    ]
  }, 
  {
    "status": "OK", 
    "html_attributions": [
      "Listings by <a href=\"http://www.telelistas.net/\">Telelistas</a>"
    ], 
    "results": [
      {
        "name": "Zona 37", 
        "reference": "CnRvAAAANMJ7ex1tFPFkxlLG_uUTHk3EZZDcgf8mNdYdrSMr8AjElx87XXCufooVuWYaXOps_uGHWGYir35ZI7hhQTZyBu_KQOG703h1o-J7OBrOe4v8OAxFpiTMsW4fixY09gqhDh2krLxt5xq5eqn2QwY4uRIQN-_gtWV9u6l7mXtMr7numRoUdTD65xoB-22v9u5MzleXL28_kwg", 
        "geometry": {
          "location": {
            "lat": -23.4005347, 
            "lng": -51.8998371
          }, 
          "viewport": {
            "northeast": {
              "lat": -23.3861241, 
              "lng": -51.8743202
            }, 
            "southwest": {
              "lat": -23.4235231, 
              "lng": -51.9151874
            }
          }
        }, 
        "vicinity": "Zona 37", 
        "id": "8eb03761c0a75c32f47521abfcd29b983afbdc0b", 
        "types": [
          "sublocality", 
          "political"
        ], 
        "icon": "http://maps.gstatic.com/mapfiles/place_api/icons/geocode-71.png"
      }, 
      {
        "name": "Recanto da Sopa", 
        "reference": "CnRtAAAAwhWeB2FkB9DWR41kBVYANKfVrHg4WpgsDKHRPeOBu4wCn02YRPkWn46YW-UeiO84GYExFLPpGxxu52hYZ93ekNRkelbkz0JHjYIJtzn5Ys0rYUWkhDJoGRHGsiLCOORMbsdCwougB8r8BtTHaoDeRRIQRtLBfRBB25tGPOiR14XcBxoU5wO6m9W94EDk6duOdgfrsvb7Dsk", 
        "geometry": {
          "location": {
            "lat": -23.392562, 
            "lng": -51.896508
          }
        }, 
        "vicinity": "Rua Rio S\u00e3o Francisco, 33 - Maring\u00e1", 
        "id": "81405c296a580b2ec06a55042e738e6b83b2bdd8", 
        "types": [
          "establishment"
        ], 
        "icon": "http://maps.gstatic.com/mapfiles/place_api/icons/generic_business-71.png"
      }, 
      {
        "name": "Jevant Moveis LTDA ME", 
        "reference": "CoQBcwAAAD-prbPva3j14K9chr4ldBd9XvCGiAUfs24dMkXbBeZk1ZBl1Lwm0gWMHft0ceWpJrJr_mdkiyvzyYHtuhgW_U8yQ7v6EWXn_mgWhlQsDGfFTVFqT3D4DJGmGsJ67fs62Wq479xlzX__0blSj0wExp8Zyl_oHOxEWSMJL5FgG1IWEhAkWnaDSWDghA2TLiynP_pOGhQjTlgp7X7QzOsOqCOAwsctImUx-w", 
        "geometry": {
          "location": {
            "lat": -23.392748, 
            "lng": -51.896851
          }
        }, 
        "opening_hours": {
          "open_now": false
        }, 
        "vicinity": "Rua Pion. Guarino Augusto Basseto, 2020 - Zona 37, Maring\u00e1", 
        "id": "f359f0579321bffe04ff163fc570653c4e6056ab", 
        "types": [
          "establishment"
        ], 
        "icon": "http://maps.gstatic.com/mapfiles/place_api/icons/generic_business-71.png"
      }, 
      {
        "name": "Eletroames", 
        "reference": "CnRoAAAAf0sZ_4cMBtUJf4-QEvnRCHadqWz3w6b4nq6j6rtccg3mV7kFsWpC0qNULuJ5HFSGPmFHKMmFdLxnVDbXaEi8mrsGg-2_dzMVAqR8xna3QRSSvUKv9aC66yQXwu974OyaFaFNc3qcifWqD_92mBQuExIQgQ8cC53PxxnoUUv7kV9QIhoUvwA5pzCXiOs_QVncgwSz3L03aBg", 
        "geometry": {
          "location": {
            "lat": -23.394836, 
            "lng": -51.893229
          }
        }, 
        "opening_hours": {
          "open_now": false
        }, 
        "vicinity": "Rua Pioneiro Guarino Augusto Basseto, N\u00ba 2476, Maring\u00e1", 
        "id": "a2a01f193737084fb7d543836e9cf078a397d93a", 
        "types": [
          "electrician", 
          "establishment"
        ], 
        "icon": "http://maps.gstatic.com/mapfiles/place_api/icons/generic_business-71.png"
      }, 
      {
        "name": "Vidra\u00e7aria Atual Vidros e Persianas", 
        "reference": "CpQBggAAAFww5fcKG3qBByupY7en7wLmDN29DBnUpt5KYQBPXXT3038iSbqZ5B_JGrIAncFqLexhXDjRHvor7ye2QaOaIP3Fu8yg9-pqXLcWxUK9ySIUVpVYpl1m79hOjvok5gvGFDYFi_2nQv56A6dWAX-_kfTRuXeStJt1zZMZVoX9g_qs-2w45WNl0S6kIyTzeE8eRhIQW-qlZd2FGLlsR7aeu8_qbhoUhnpuvw1-Ml-kSbZYmQf8SNHkg-4", 
        "geometry": {
          "location": {
            "lat": -23.392879, 
            "lng": -51.895723
          }
        }, 
        "vicinity": "Rua Rio S\u00e3o Francisco, 1284 - Conj. Res. Branca Vieira, Maring\u00e1", 
        "id": "af2c02531d0475d0d2601f4d6fdcd94726fcf8ec", 
        "types": [
          "store", 
          "establishment"
        ], 
        "icon": "http://maps.gstatic.com/mapfiles/place_api/icons/generic_business-71.png"
      }, 
      {
        "name": "Maring\u00e1", 
        "reference": "CnRwAAAAKegzvBXF8sGDrNtbbhOHOs3YdZxWUCv_pMjA99K8FT7uRMQCdN1MnCf2VJ26uN3mhmzigdMhbj56SAOVWJz7tXit3uG1c43lhxnLgh9ZWSTsdKE6sRCkJ3SRiLvJuNxjANgOXqKnOOSacxLjePIqwRIQAQQNlNufmiI50nE6u5bvqxoUgmUKVBMD58TwoYqQZ37kgDCjQT8", 
        "geometry": {
          "location": {
            "lat": -23.427304, 
            "lng": -51.9375047
          }, 
          "viewport": {
            "northeast": {
              "lat": -23.25344, 
              "lng": -51.835463
            }, 
            "southwest": {
              "lat": -23.558014, 
              "lng": -52.1011961
            }
          }
        }, 
        "vicinity": "Maring\u00e1", 
        "id": "24b5b48c412af5805a55e4237119cc41424a7773", 
        "types": [
          "locality", 
          "political"
        ], 
        "icon": "http://maps.gstatic.com/mapfiles/place_api/icons/geocode-71.png"
      }
    ]
  }, 
  {
    "status": "OK", 
    "html_attributions": [], 
    "results": [
      {
        "name": "Zona 37", 
        "reference": "CnRvAAAA1t-rd58vFMPmTQfcA1a1XjuJqesKUPdcgo8aHJDOpevAEA-FRXDeZPdE2B7YT1hKRfqWfm-szqaU8-T7QPtzyOVwbxTUAyGbXMqzlKn1IKjjtIGNEJNCoi-ViH8T82XHWnqN7EPU-DPkRAAyZ2FhMBIQZMpIYCbf3UHriOe72b8rphoUYnIDKmhCuQqyTNbl4i0KvgbC--E", 
        "geometry": {
          "location": {
            "lat": -23.4005347, 
            "lng": -51.8998371
          }, 
          "viewport": {
            "northeast": {
              "lat": -23.3861241, 
              "lng": -51.8743202
            }, 
            "southwest": {
              "lat": -23.4235231, 
              "lng": -51.9151874
            }
          }
        }, 
        "vicinity": "Zona 37", 
        "id": "8eb03761c0a75c32f47521abfcd29b983afbdc0b", 
        "types": [
          "sublocality", 
          "political"
        ], 
        "icon": "http://maps.gstatic.com/mapfiles/place_api/icons/geocode-71.png"
      }, 
      {
        "name": "Maring\u00e1", 
        "reference": "CnRwAAAA3VOKfTxyheXdxxCkn-ZhMVA2ZlqMSMxbmokf9_qrphBLLl9Ygx8gABbUtgFKwKb9XR2CL1IQib6aL3VKvx1vAk2DqgtKw0_2iwobajewYflk-mlYU9JQ3Hf2-cN9IynHFbODPZ_OetCjtFTS3_mDKhIQ02t-kq5K2SPU8jmRQhLACRoUkzGvjo8AEyLGKanJMEUziI2AzeA", 
        "geometry": {
          "location": {
            "lat": -23.427304, 
            "lng": -51.9375047
          }, 
          "viewport": {
            "northeast": {
              "lat": -23.25344, 
              "lng": -51.835463
            }, 
            "southwest": {
              "lat": -23.558014, 
              "lng": -52.1011961
            }
          }
        }, 
        "vicinity": "Maring\u00e1", 
        "id": "24b5b48c412af5805a55e4237119cc41424a7773", 
        "types": [
          "locality", 
          "political"
        ], 
        "icon": "http://maps.gstatic.com/mapfiles/place_api/icons/geocode-71.png"
      }
    ]
  }, 
  {
    "status": "OK", 
    "html_attributions": [
      "Listings by <a href=\"http://www.telelistas.net/\">Telelistas</a>"
    ], 
    "results": [
      {
        "name": "Zona 46", 
        "reference": "CnRvAAAAZOPRVFo-ipn_v9eMpmBeZ1LdaNAOWqryww7jzhaT8reFyHCUCqxn8XRpCKVmst90hUK5hsM4AgRHyAX3DN37_c7zDH5_C2BnNDaPfqFtN4_G7JkkRSyeJ-JxJG5aji12bmz0G_ru6dP9dukmCTfa-BIQMGvY4XMP7by0kdM1_m-gehoUKzvfj8p8KJhnUqSYJKWsCxT1frM", 
        "geometry": {
          "location": {
            "lat": -23.386702, 
            "lng": -51.9130553
          }, 
          "viewport": {
            "northeast": {
              "lat": -23.380512, 
              "lng": -51.8942602
            }, 
            "southwest": {
              "lat": -23.400035, 
              "lng": -51.91954029999999
            }
          }
        }, 
        "vicinity": "Zona 46", 
        "id": "96e48733bd8e9bedccb22ef8385d52b39c60b0f3", 
        "types": [
          "sublocality", 
          "political"
        ], 
        "icon": "http://maps.gstatic.com/mapfiles/place_api/icons/geocode-71.png"
      }, 
      {
        "name": "Telemensagem Rede Vida", 
        "reference": "CoQBdQAAAMLoeeC5lIa80kxFeTYg_3Di74uraTECM_XREPGJrP7qeZBeXYRT77OuP1KyLo4olGhkY1b1qcevVJ9q2UBmh7VwOnXG8Z_2dnq7V38C8TTP-tkIzpXGC0oc4VDz6LyVorFMoAgpdV_ynJ4etx2RpSKTGuyYujhAjMUDdVonm-jWEhBOJfA55rloIoQHVVW4KptQGhST2QBPLjmyUIZxQQ7pe0gRC8nVLQ", 
        "geometry": {
          "location": {
            "lat": -23.388627, 
            "lng": -51.89825
          }
        }, 
        "vicinity": "Rua Itaipu, 58 - Maring\u00e1", 
        "id": "2e2c2a6756715427a92e13bc7a876f8819cf6bb2", 
        "types": [
          "establishment"
        ], 
        "icon": "http://maps.gstatic.com/mapfiles/place_api/icons/generic_business-71.png"
      }, 
      {
        "name": "Omega Salgados", 
        "reference": "CnRsAAAA209G8M6eKgWgvwsqlbdL0htsQa8oaqjIe0e19P3jy2kD0KpS0Ft_-B0DdMumJWzYBLvwFQ3LsS3BO54bmjXM_P0Bm53Cz8YGzdGPrrgCci9mmsbc135AxQMr1ac0dTXaIa-k1svpIJc6UdgfK82BixIQYPjMKUAehXu5OHxnCHtYOhoUR1O7j55cUeiYQsl-mreQNKDe_1A", 
        "geometry": {
          "location": {
            "lat": -23.388276, 
            "lng": -51.899542
          }
        }, 
        "opening_hours": {
          "open_now": false
        }, 
        "vicinity": "Rua Itaipu, 75 - Zona 46, Maring\u00e1", 
        "id": "10a460eb96453d08f87fef701a9d6a356d7d708b", 
        "types": [
          "establishment"
        ], 
        "icon": "http://maps.gstatic.com/mapfiles/place_api/icons/generic_business-71.png"
      }, 
      {
        "name": "Shekinah Seguran\u00e7a Eletr\u00f4nica", 
        "reference": "CoQBfQAAAM01z0YSCyLE9ZsKrnGChs6xT3yLp060sqLzR_vF8tp2uu-5xk3paUFxAlJCGe5O5IiuvhcGD7o1Fg-rxIXzRA4vgrhf0AncrByUn7oMABiJAWzYv8-z8fD8jtTTExjp6SuOFiie1NHBjiIciwMhVkOiT0q992KRPVmoVY0oL0WUEhCmXABwb_3RQ6XaczsiMZ0TGhTbV_OXu_LTsLhqwKYP1_WuFZ7TMA", 
        "geometry": {
          "location": {
            "lat": -23.385898, 
            "lng": -51.898352
          }
        }, 
        "vicinity": "Jd. Andrade - CEP:, Rua Am\u00e9rico Laerte Bigat\u00e3o, 382 - Maring\u00e1", 
        "id": "5574f6b2608750e7438a64edd8bff9eb9588b540", 
        "types": [
          "establishment"
        ], 
        "icon": "http://maps.gstatic.com/mapfiles/place_api/icons/generic_business-71.png"
      }, 
      {
        "name": "Onimidia", 
        "reference": "CnRnAAAAz9J1PzJTThpWLlXladbDZFdSkhosVy-D2qh3zDkly608IgDEeezlWexbgGXq8PVGgyp4Ty7Ah0K_lBgyLDN3yDnu2Qg8BaSuNoH4q3N0dhE6ORSBEcudXjAfb4FL6G1J6r-JkdfMVKOIIQWGjQfG2xIQoykrqF5__hg5Wmh3YTc9tBoUd7XZKRp31FMBk9C-7pRkRAnSVpI", 
        "geometry": {
          "location": {
            "lat": -23.388402, 
            "lng": -51.901701
          }
        }, 
        "vicinity": "Rua Foz do Areia, 244 - Ebenezer, Maring\u00e1", 
        "id": "4beca7e39fee0587498b7b24ac5eec85ba0c857b", 
        "types": [
          "establishment"
        ], 
        "icon": "http://maps.gstatic.com/mapfiles/place_api/icons/generic_business-71.png"
      }, 
      {
        "name": "EMGITEC - Maquinas e Equipamentos", 
        "reference": "CoQBfwAAAPP0uHaZeIwADTSXmn2R6rfl3KlZ4xeDnSqvdlImFanb01a2ewuYfIOs9S7iOikoPQGiNaR1e4T_7Li4OU2NCPfWnZlAFGxJAtKPSzAQnPKO6kaMyEoTtBH03W_xTjCQKGpsv1FMgUV1Bq0Kw2iB8Shj743Y9oD8CvX0oog-HCNUEhAYJEGrvxklNsd7jhqYyHkhGhSyThjvzn2FdAslSRF_JsF4eviRmg", 
        "geometry": {
          "location": {
            "lat": -23.387332, 
            "lng": -51.898496
          }
        }, 
        "opening_hours": {
          "open_now": false
        }, 
        "vicinity": "Av. Anel Vi\u00e1rio, 6405 - Zona 46, Maring\u00e1", 
        "id": "724255355e5cdefa9b8f0b37c7e4bf83ef6dd2ea", 
        "types": [
          "establishment"
        ], 
        "icon": "http://maps.gstatic.com/mapfiles/place_api/icons/generic_business-71.png"
      }, 
      {
        "name": "Maring\u00e1", 
        "reference": "CnRwAAAArTo2KyMooC9c13YOuZtfz507Adh0fzPVB-VqsywJ2k-Rq7t6rIoJoSR37kuHr-Wc6jijU6JhMJ5X0EZ32nEfXxw8a3HEF8iY4f5RbC6siXpI-OKhkZyp7WSmI_OthPfZpq6ZlY8oHxWtkDFlHJ05mhIQk3NO0kWclCXZ1YRoi07KkBoUInzZt39qTL80LjwLsWoorCxY95I", 
        "geometry": {
          "location": {
            "lat": -23.427304, 
            "lng": -51.9375047
          }, 
          "viewport": {
            "northeast": {
              "lat": -23.25344, 
              "lng": -51.835463
            }, 
            "southwest": {
              "lat": -23.558014, 
              "lng": -52.1011961
            }
          }
        }, 
        "vicinity": "Maring\u00e1", 
        "id": "24b5b48c412af5805a55e4237119cc41424a7773", 
        "types": [
          "locality", 
          "political"
        ], 
        "icon": "http://maps.gstatic.com/mapfiles/place_api/icons/geocode-71.png"
      }
    ]
  }, 
  {
    "status": "OK", 
    "html_attributions": [
      "Listings by <a href=\"http://www.telelistas.net/\">Telelistas</a>"
    ], 
    "results": [
      {
        "name": "Zona 46", 
        "reference": "CnRvAAAAUv_35xuo6DjycnK76Bvh5OVN-U6wgLK23CZQLtRw7fkLDR1NgxdrCjuIenHnwGZgs_iV9_eSRkt73q7rf-XcQULDNhMjX5SMK9-XcVeswiM62MI-7FYTvaq-Z5VSl4mReN115QrD5K6lXOBpTkYKOBIQi1YqSTJDvzYVDjg833xqohoUecD4dcBlAjfpHJ8GFb_NERarduo", 
        "geometry": {
          "location": {
            "lat": -23.386702, 
            "lng": -51.9130553
          }, 
          "viewport": {
            "northeast": {
              "lat": -23.380512, 
              "lng": -51.8942602
            }, 
            "southwest": {
              "lat": -23.400035, 
              "lng": -51.91954029999999
            }
          }
        }, 
        "vicinity": "Zona 46", 
        "id": "96e48733bd8e9bedccb22ef8385d52b39c60b0f3", 
        "types": [
          "sublocality", 
          "political"
        ], 
        "icon": "http://maps.gstatic.com/mapfiles/place_api/icons/geocode-71.png"
      }, 
      {
        "name": "Telemensagem Rede Vida", 
        "reference": "CoQBdQAAADtiQoj7p7tgwFjJyk0-PcqmWXgXZnznzz3yHnfDyogbE9HHwyZr1I6WiLI-WW7we-s1OKJIBt0InYHPYB8ugw5Anxnzu7LH-xcpXn00GB5xlcI5B2qhbIjB9kmU53Eu0qezrxJSsvD966xxG3ZhpyqDKVpNKUq78S9HeK3Q0yKfEhDcEhnPMCuQ0vY37Ooo4_WPGhRIKWb5jx_EfQZroZyGto8toGx4GA", 
        "geometry": {
          "location": {
            "lat": -23.388627, 
            "lng": -51.89825
          }
        }, 
        "vicinity": "Rua Itaipu, 58 - Maring\u00e1", 
        "id": "2e2c2a6756715427a92e13bc7a876f8819cf6bb2", 
        "types": [
          "establishment"
        ], 
        "icon": "http://maps.gstatic.com/mapfiles/place_api/icons/generic_business-71.png"
      }, 
      {
        "name": "Buffet Fest Evandro", 
        "reference": "CoQBcgAAAJwQSlc6m__azuwM6YoEgZGnTXKXHxG_rVSXjpWe91cJ3nRfQ4EyjWSiLC_SYOC7S7pYIFNX1xx6Z4eIeA-ZvV8A2wjDUcdgDlZ_Vj2toseCHQBJefZvIvx3cIF0fr7Ffi52M-UXEdBS9-Px7_ZkjmSkqNAgY35sV6ZLM27guwc6EhDe7OT74R31ed4_bxhKB5RyGhSz3QSiOz9rwSGdoFoAJxS9SW0PFg", 
        "geometry": {
          "location": {
            "lat": -23.388783, 
            "lng": -51.897875
          }
        }, 
        "vicinity": "Rua Itaipu, 18 - Ebenezer, Maring\u00e1", 
        "id": "30349200858030b2b76e7646eb551cb1fe6e8079", 
        "types": [
          "establishment"
        ], 
        "icon": "http://maps.gstatic.com/mapfiles/place_api/icons/generic_business-71.png"
      }, 
      {
        "name": "Shekinah Seguran\u00e7a Eletr\u00f4nica", 
        "reference": "CoQBfQAAAPFLcovCYZR0CEtHpC0rYrm86v1Z0vlV5nVhixvhJnFRruc41o-GKd44pde95y8pECcpYwCTpfKhzhdFw4uDFajWBKZoNhNovDBdJCaPVeZtjvDk2FcdPInDP8qiLoUqaTJBIqmJ9MaUwbP44nTLoXgg4w4mceo-aBClZ6GtqIrKEhAu25Lq4RBpaj3uOWVAS5FWGhQLUyUBWiXQdoMk8TzFhvIBSn6P5Q", 
        "geometry": {
          "location": {
            "lat": -23.385898, 
            "lng": -51.898352
          }
        }, 
        "vicinity": "Jd. Andrade - CEP:, Rua Am\u00e9rico Laerte Bigat\u00e3o, 382 - Maring\u00e1", 
        "id": "5574f6b2608750e7438a64edd8bff9eb9588b540", 
        "types": [
          "establishment"
        ], 
        "icon": "http://maps.gstatic.com/mapfiles/place_api/icons/generic_business-71.png"
      }, 
      {
        "name": "EMGITEC - Maquinas e Equipamentos", 
        "reference": "CoQBfwAAAOX7RYC6s9AofzLFE3eWgvFTN3hM333IEyT7jIlmRHo0AFSi2Gu_ss660ScAYDNIcoGdUCzpEII5Sm5BxGauJp7jr0u-Efs6rpw-dzadT-FvzApi2f6RZi-hs2-2oyyns1wb1ZXd3PVjFv69Ua_BPAJb444XhvHyVr9_RqHtt9fPEhDYVV1X7oZCYJU8Yat8gaSIGhSGofGpFOCjdB4tvm9eiPQbR9qzpA", 
        "geometry": {
          "location": {
            "lat": -23.387332, 
            "lng": -51.898496
          }
        }, 
        "opening_hours": {
          "open_now": false
        }, 
        "vicinity": "Av. Anel Vi\u00e1rio, 6405 - Zona 46, Maring\u00e1", 
        "id": "724255355e5cdefa9b8f0b37c7e4bf83ef6dd2ea", 
        "types": [
          "establishment"
        ], 
        "icon": "http://maps.gstatic.com/mapfiles/place_api/icons/generic_business-71.png"
      }, 
      {
        "name": "Zona 37", 
        "reference": "CnRvAAAAbw5SmHhY26M1_O6TzzGG8iruFXSiphOIVUkGVslsaELMCmBZH1MkM_Ew4oQ_Aw81CMIFvzINHFn3_gBpw3NXSgDhwPO-XtnZXJpSFgYa9gkK-N8jHUcVAsYU6leOflvrBJBLHSE6Vkh02D2np1WiURIQccsQ8olM70CwNshItWDQPhoUJzg6iT79dY1Ookitbo5WdFk1xHI", 
        "geometry": {
          "location": {
            "lat": -23.4005347, 
            "lng": -51.8998371
          }, 
          "viewport": {
            "northeast": {
              "lat": -23.3861241, 
              "lng": -51.8743202
            }, 
            "southwest": {
              "lat": -23.4235231, 
              "lng": -51.9151874
            }
          }
        }, 
        "vicinity": "Zona 37", 
        "id": "8eb03761c0a75c32f47521abfcd29b983afbdc0b", 
        "types": [
          "sublocality", 
          "political"
        ], 
        "icon": "http://maps.gstatic.com/mapfiles/place_api/icons/geocode-71.png"
      }
    ]
  }, 
  {
    "status": "OK", 
    "html_attributions": [], 
    "results": [
      {
        "name": "Zona 46", 
        "reference": "CnRuAAAABCjEqhEBBS4g3gLeln-f0x44ut6xSKTmsAGlGmAEDW1lk--AMnpOq7dfSrLXydJyqrJk-K37hot79NVeHmA2V64fU96kfgXNiQz8c7IJ-bTjKliiRvTioMLjNL9DkRs1azek0AZLup30Nt6S5ZWknhIQ3vs90sX8exQUAT2uMYnJ3RoUW4VWolj5l8aVJ2EK8N1y6YwNrq4", 
        "geometry": {
          "location": {
            "lat": -23.386702, 
            "lng": -51.9130553
          }, 
          "viewport": {
            "northeast": {
              "lat": -23.380512, 
              "lng": -51.8942602
            }, 
            "southwest": {
              "lat": -23.400035, 
              "lng": -51.91954029999999
            }
          }
        }, 
        "vicinity": "Zona 46", 
        "id": "96e48733bd8e9bedccb22ef8385d52b39c60b0f3", 
        "types": [
          "sublocality", 
          "political"
        ], 
        "icon": "http://maps.gstatic.com/mapfiles/place_api/icons/geocode-71.png"
      }, 
      {
        "name": "Zona 37", 
        "reference": "CnRuAAAA3qwZ6HUcuyRqRTE3eVAMq-dn90hlzb5EieFt2DaUvlA5N3p_zW2UmMPi-wKOuwD9l_7nWshZt-z8baE6r4i-m1_IeJLvP26__97XkgxjKxusWIyCI0EPcNKstuOaL7xDz8fK-0tXP9iBEiIBDoH8pBIQAOh7s1EnkqLNMckt1XOKdRoUPeCTWYHsLlaJfle18bj_dG8woew", 
        "geometry": {
          "location": {
            "lat": -23.4005347, 
            "lng": -51.8998371
          }, 
          "viewport": {
            "northeast": {
              "lat": -23.3861241, 
              "lng": -51.8743202
            }, 
            "southwest": {
              "lat": -23.4235231, 
              "lng": -51.9151874
            }
          }
        }, 
        "vicinity": "Zona 37", 
        "id": "8eb03761c0a75c32f47521abfcd29b983afbdc0b", 
        "types": [
          "sublocality", 
          "political"
        ], 
        "icon": "http://maps.gstatic.com/mapfiles/place_api/icons/geocode-71.png"
      }
    ]
  }, 
  {
    "status": "OK", 
    "html_attributions": [
      "Listings by <a href=\"http://www.telelistas.net/\">Telelistas</a>"
    ], 
    "results": [
      {
        "name": "Zona 46", 
        "reference": "CnRuAAAAK0qlcB13gqAncQNmByyjxY99RN3lp99omVWhAaaL7WLe5fnydibsEg-sAvhjY2gv6H0xWTXllOYU8dFUZPhEUn2M7YGjLbX_3il5rdJ7ARe5qrldQQoSwfmZsc7bg07viR9tohzcyZcK04xRZQOfuBIQBi0CjRff8a-71yHZQclpVRoUlke8zxd2-Ersv5AVMymVRA5I_bE", 
        "geometry": {
          "location": {
            "lat": -23.386702, 
            "lng": -51.9130553
          }, 
          "viewport": {
            "northeast": {
              "lat": -23.380512, 
              "lng": -51.8942602
            }, 
            "southwest": {
              "lat": -23.400035, 
              "lng": -51.91954029999999
            }
          }
        }, 
        "vicinity": "Zona 46", 
        "id": "96e48733bd8e9bedccb22ef8385d52b39c60b0f3", 
        "types": [
          "sublocality", 
          "political"
        ], 
        "icon": "http://maps.gstatic.com/mapfiles/place_api/icons/geocode-71.png"
      }, 
      {
        "name": "Telemensagem Rede Vida", 
        "reference": "CoQBdAAAAGarwy_SdZu3d4v32BtI193o-l8_urTBxUyRpfh6CcPo5cBqfoIzTocz4MivBUBdsrtYkwUa8jYi5TEPU0lXK1k24RYxIduWCUEUISy06uvRezNq3uR4SvmkW0wlqHi1d5abid4c9WvSFWDSGyQQm7iXMX7z6fFx6RUmHebfSieJEhCUmlEcd6z4GOB8-ySvHIdKGhSIvaVqETVy5ILQNcQApEw7uVXN4w", 
        "geometry": {
          "location": {
            "lat": -23.388627, 
            "lng": -51.89825
          }
        }, 
        "vicinity": "Rua Itaipu, 58 - Maring\u00e1", 
        "id": "2e2c2a6756715427a92e13bc7a876f8819cf6bb2", 
        "types": [
          "establishment"
        ], 
        "icon": "http://maps.gstatic.com/mapfiles/place_api/icons/generic_business-71.png"
      }, 
      {
        "name": "Buffet Fest Evandro", 
        "reference": "CoQBcQAAACn7B_FlATB6-UrIr7dgn8IA1mMq2eDgYeR_joqhxvP3zNEOrmImTut22cWx09akSbRjIJHFAy35qtTbf-RTEhc3bNWdURorEWCh5pFMOXf8tmixCXO5E-fN3-T4Zq6vMIl16JIX3Zkaf1Gx9Gar3w1E5P8AunBpxn99b95zWXyUEhCJqWSmcwjqLeiRtcMx6_3OGhToOaq36pBbZQ9fawPWVUDZW4t1EA", 
        "geometry": {
          "location": {
            "lat": -23.388783, 
            "lng": -51.897875
          }
        }, 
        "vicinity": "Rua Itaipu, 18 - Ebenezer, Maring\u00e1", 
        "id": "30349200858030b2b76e7646eb551cb1fe6e8079", 
        "types": [
          "establishment"
        ], 
        "icon": "http://maps.gstatic.com/mapfiles/place_api/icons/generic_business-71.png"
      }, 
      {
        "name": "Omega Salgados", 
        "reference": "CnRrAAAAPuBMg1yUA_AzXR2rEOnDZwuHTGLbGplNzBE1-gBDAnI-hZDI5mpOpqY7bf9b8ArfVgWly0xf0H1sPKh6IpONxLxZiHLETxx09IQDBPOe9Z3zPDZCUHzXK9i-u69N8oabKDIJSvODlSDspHqVD1h7aBIQGHkJfiS5BlhJJbeVRs-ZQhoUAVJdVq8r3sC7dQsVcYzIdKnEIUs", 
        "geometry": {
          "location": {
            "lat": -23.388276, 
            "lng": -51.899542
          }
        }, 
        "opening_hours": {
          "open_now": false
        }, 
        "vicinity": "Rua Itaipu, 75 - Zona 46, Maring\u00e1", 
        "id": "10a460eb96453d08f87fef701a9d6a356d7d708b", 
        "types": [
          "establishment"
        ], 
        "icon": "http://maps.gstatic.com/mapfiles/place_api/icons/generic_business-71.png"
      }, 
      {
        "name": "Zona 37", 
        "reference": "CnRuAAAArCWBLJRQPgZTNw8LHUte3iqToa2zTgyQ5F6FaWnu215UlgJRKMHLvqP7qyi718o5TtR11hCl5P_EX1ITTw9CBIRsv5sFViwKxHgCJEo2QEmCLpqAHSf3J0bCaum4nRLJk-nYbNZ1tbGaaXmTHeQihBIQi0mSjNC9mfRjWSkPNgmXfBoUmeGOM0MLr_ML6OF6ejA3wa63ioc", 
        "geometry": {
          "location": {
            "lat": -23.4005347, 
            "lng": -51.8998371
          }, 
          "viewport": {
            "northeast": {
              "lat": -23.3861241, 
              "lng": -51.8743202
            }, 
            "southwest": {
              "lat": -23.4235231, 
              "lng": -51.9151874
            }
          }
        }, 
        "vicinity": "Zona 37", 
        "id": "8eb03761c0a75c32f47521abfcd29b983afbdc0b", 
        "types": [
          "sublocality", 
          "political"
        ], 
        "icon": "http://maps.gstatic.com/mapfiles/place_api/icons/geocode-71.png"
      }
    ]
  }
]