[
  {
    "status": "OK", 
    "html_attributions": [
      "Listings by <a href=\"http://www.telelistas.net/\">Telelistas</a>"
    ], 
    "results": [
      {
        "name": "Zona 46", 
        "reference": "CnRuAAAA4FCnFQ1gtuhBox5p5RFIFAJr8CTdPfBnICrxIpKq2Hyjp-Uw1JE8dUnTpJc6Zt0f20c_1-xWPOlYz8r2vU-0CVfW_TeSzkyLjyS_BSrAsqnU1lylfFUQrqNrqfCHnMROkj_L3nvOgR80lF7fVOl7ThIQIhR0Y22CeJnRtS_655DtcBoUTYy48PlZaDcAt7oBxKCsNAmgQqg", 
        "geometry": {
          "location": {
            "lat": -23.386702, 
            "lng": -51.9130553
          }, 
          "viewport": {
            "northeast": {
              "lat": -23.380512, 
              "lng": -51.8942602
            }, 
            "southwest": {
              "lat": -23.400035, 
              "lng": -51.91954029999999
            }
          }
        }, 
        "vicinity": "Zona 46", 
        "id": "96e48733bd8e9bedccb22ef8385d52b39c60b0f3", 
        "types": [
          "sublocality", 
          "political"
        ], 
        "icon": "http://maps.gstatic.com/mapfiles/place_api/icons/geocode-71.png"
      }, 
      {
        "name": "Telemensagem Rede Vida", 
        "reference": "CoQBdAAAANKCNxfysk8nyhGw9SCZaIvJaLrUuNynt3AHb59jIT-PY3EQTfqONitF00zFmANsZF35xY61YllADcQtZuKnrkeh4muCiqHlIf3RAkB52IYbEdEOCGI1MEC7_evZ-L8moJ5k40L6YZIvcfTEmKP1dlaqNOP5PtVUja_wpa3hh1KwEhAeK2ba9NwYP8n-BaW1fslMGhQi0sNcEwuhYDteG1EVFhY1o2E3Kg", 
        "geometry": {
          "location": {
            "lat": -23.388627, 
            "lng": -51.89825
          }
        }, 
        "vicinity": "Rua Itaipu, 58 - Maring\u00e1", 
        "id": "2e2c2a6756715427a92e13bc7a876f8819cf6bb2", 
        "types": [
          "establishment"
        ], 
        "icon": "http://maps.gstatic.com/mapfiles/place_api/icons/generic_business-71.png"
      }, 
      {
        "name": "Buffet Fest Evandro", 
        "reference": "CoQBcQAAAMJRH20qo0gRoemlHlMhVJwQLn25xQyHwsaBx7prGI87t45eGUtXLD9UDtHw22rJe7iuuNVjY5fqlBy4k8kT8qcu1xwaOfea1JZQPlZFO_cQMGvgRJI7mtrbiBygWisyRdJm9zacqSKgUXRvKCdkAqsMpIAMjdieg5SCvKCpVw5lEhCUx3qKBttu973DyRA63os_GhT-FeyXSlkbMJ6ySeaGVI9JumYc9g", 
        "geometry": {
          "location": {
            "lat": -23.388783, 
            "lng": -51.897875
          }
        }, 
        "vicinity": "Rua Itaipu, 18 - Ebenezer, Maring\u00e1", 
        "id": "30349200858030b2b76e7646eb551cb1fe6e8079", 
        "types": [
          "establishment"
        ], 
        "icon": "http://maps.gstatic.com/mapfiles/place_api/icons/generic_business-71.png"
      }, 
      {
        "name": "Omega Salgados", 
        "reference": "CnRrAAAAgs_Hy6ZBlykFj9vPKXFPJ80Ymml-TsjD6_Caj3VfEYzeCetVSfCTICd22Zlm8Xhdj10JfHgEy6wucxqx6VNtZvbgsbphABfZNdkWV7eFxdvymvxiKCjuK_50szhEfsjEVp1Bfx-sCwsymEEF4MX7-RIQdlCrkHfznTb-Ig_NA6vFaRoUJDK-Ymbv51qhgkgDsIAwhtXNdcw", 
        "geometry": {
          "location": {
            "lat": -23.388276, 
            "lng": -51.899542
          }
        }, 
        "opening_hours": {
          "open_now": false
        }, 
        "vicinity": "Rua Itaipu, 75 - Zona 46, Maring\u00e1", 
        "id": "10a460eb96453d08f87fef701a9d6a356d7d708b", 
        "types": [
          "establishment"
        ], 
        "icon": "http://maps.gstatic.com/mapfiles/place_api/icons/generic_business-71.png"
      }, 
      {
        "name": "Vidra\u00e7aria Dione", 
        "reference": "CnRuAAAAmIlycAFhltrxScvFlsnH3Zs32vr1y6u-aGIAe1lVfUsveqXkygvmm9ouG_fh7BIilnYIZfoExkOS-RjraAUo1q2xekKobLCLyHBXZp6fI167Jk1sgYyTALajb82g1Ud-sAqmbi4BqIMRAKRLyZgpHhIQ8L1WS9Z6fuXlkN9tkEwZZRoU2UoLaxndK-koiNiotnCXlVTFNrk", 
        "geometry": {
          "location": {
            "lat": -23.389667, 
            "lng": -51.900434
          }
        }, 
        "vicinity": "Rua Pion. Porphirio de Moraes, 19 - Cj Res R Bernardi, Maring\u00e1", 
        "id": "63a88a95326de4969f772730dcf6c5beed6cf418", 
        "types": [
          "store", 
          "establishment"
        ], 
        "icon": "http://maps.gstatic.com/mapfiles/place_api/icons/generic_business-71.png"
      }, 
      {
        "name": "Onimidia", 
        "reference": "CnRmAAAAXnVTa3d_YtaDBcUSwThwBKMlC6G1Fu6OTWOxyK6JqDfICjkdlyOAWdrTf3gv4OCJ1lvLsO6x8D9wk0JXCg5oEsHHKxKRgmH-zN4vbYW6fggC60wqKpNLCfCJ6-Q7p0sQlGtKTG4HO5qWq_f0mGt-ZBIQreCHR8Vu0d_IjQY-VEEO3hoUqIAJS4RcY4w0FU0YshEIBjxoiN4", 
        "geometry": {
          "location": {
            "lat": -23.388402, 
            "lng": -51.901701
          }
        }, 
        "vicinity": "Rua Foz do Areia, 244 - Ebenezer, Maring\u00e1", 
        "id": "4beca7e39fee0587498b7b24ac5eec85ba0c857b", 
        "types": [
          "establishment"
        ], 
        "icon": "http://maps.gstatic.com/mapfiles/place_api/icons/generic_business-71.png"
      }, 
      {
        "name": "EMGITEC - Maquinas e Equipamentos", 
        "reference": "CoQBfgAAACzT1E1QHdua_Zn07UQOp5iEZ1c8X4VS9myGMXTrHZX-0Pfx7F3fPikJbXfu85H5YXRrPOIEvF_PvZSKEDdICq8F7avdWBQC8ddwzdKYQuLH0ZzRdGI_fwUj08dXHtsuRVsynE5TOYyuR34zWld-9p7SJZI0Y-lmQ_RCibOwXzaHEhCxxHTTYxOpjAHQJq-nPIaVGhTpcPRnrHanvwWK6fhCcVWsW02xBg", 
        "geometry": {
          "location": {
            "lat": -23.387332, 
            "lng": -51.898496
          }
        }, 
        "opening_hours": {
          "open_now": false
        }, 
        "vicinity": "Av. Anel Vi\u00e1rio, 6405 - Zona 46, Maring\u00e1", 
        "id": "724255355e5cdefa9b8f0b37c7e4bf83ef6dd2ea", 
        "types": [
          "establishment"
        ], 
        "icon": "http://maps.gstatic.com/mapfiles/place_api/icons/generic_business-71.png"
      }, 
      {
        "name": "Zona 37", 
        "reference": "CnRuAAAAbExclf0sB6l_ZJT6eoFpzpDp_iAQxKZQjflZ4wTn9DXlPfgF-cNtVGCBwRjy_tVQ-QgUVFfHeoifKLqtbnzynxDb6LXmxPyIrPREWdWVqNgIXQp1pjIJ0TV-0xXH-_onDwT4hlqVP9u2PHzo3ZfVnhIQpPRqEByvg3K5VCnQ4xgGMBoUDwVwL9yotVuWrWV5bc6xVvx-Odk", 
        "geometry": {
          "location": {
            "lat": -23.4005347, 
            "lng": -51.8998371
          }, 
          "viewport": {
            "northeast": {
              "lat": -23.3861241, 
              "lng": -51.8743202
            }, 
            "southwest": {
              "lat": -23.4235231, 
              "lng": -51.9151874
            }
          }
        }, 
        "vicinity": "Zona 37", 
        "id": "8eb03761c0a75c32f47521abfcd29b983afbdc0b", 
        "types": [
          "sublocality", 
          "political"
        ], 
        "icon": "http://maps.gstatic.com/mapfiles/place_api/icons/geocode-71.png"
      }
    ]
  }, 
  {
    "status": "OK", 
    "html_attributions": [], 
    "results": [
      {
        "name": "Zona 37", 
        "reference": "CnRvAAAAbqW7OKR3rIVcL3XW5s3yN-xpV6Pe77wZIe9mqtjiYZgkbdUIrCJeR8ZOsIDFS-33Qr0aHTp0wW8oDzrBpS-O6FcLyTAJoGy85BMe51evts6fbnLBJoT5GElfYVfdqjtOQVvAYRYQlk-lzvDt59MrTRIQsCSJC29t-kzlRk7lIJSAUBoUsRoAKkCbvjYoChwuX6NVfwighjY", 
        "geometry": {
          "location": {
            "lat": -23.4005347, 
            "lng": -51.8998371
          }, 
          "viewport": {
            "northeast": {
              "lat": -23.3861241, 
              "lng": -51.8743202
            }, 
            "southwest": {
              "lat": -23.4235231, 
              "lng": -51.9151874
            }
          }
        }, 
        "vicinity": "Zona 37", 
        "id": "8eb03761c0a75c32f47521abfcd29b983afbdc0b", 
        "types": [
          "sublocality", 
          "political"
        ], 
        "icon": "http://maps.gstatic.com/mapfiles/place_api/icons/geocode-71.png"
      }, 
      {
        "name": "Maring\u00e1", 
        "reference": "CnRwAAAASWTenfPcJdZg67Eoh_cYaoh-WDx6IXbSRiFrYx3c1te0Q5ZgYg9D_IofSFLzXpuN7gd5f9sEOUdERA2sPOg2Fgxv6zcjK4PAQ_OhZBWqhFbllC99r5tWrNvuwLlspabVxLA7EHyon4r6lsUgw7y5-RIQB52mgy4E75CI9Uw6X18nSRoU8lIx4QxUr64M0xRrjOXp1bGcFeQ", 
        "geometry": {
          "location": {
            "lat": -23.427304, 
            "lng": -51.9375047
          }, 
          "viewport": {
            "northeast": {
              "lat": -23.25344, 
              "lng": -51.835463
            }, 
            "southwest": {
              "lat": -23.558014, 
              "lng": -52.1011961
            }
          }
        }, 
        "vicinity": "Maring\u00e1", 
        "id": "24b5b48c412af5805a55e4237119cc41424a7773", 
        "types": [
          "locality", 
          "political"
        ], 
        "icon": "http://maps.gstatic.com/mapfiles/place_api/icons/geocode-71.png"
      }
    ]
  }, 
  {
    "status": "OK", 
    "html_attributions": [], 
    "results": [
      {
        "name": "Zona 46", 
        "reference": "CnRvAAAAARRDJZac-T9s8WFlSGH1nX1tO6nW-7MIWsFpYivVPthj8_ZTqtJNfsZpR2dXVsCD33UHUSXD5pkAqLn82gwxlks6HiR9zFxle0kO6bEhLyRm_RwqSc8MadWezdgwFZU6wUhhvb2GUBgWcE4d4gU3ZxIQrnRbPh-HPas3fbsPFONY6hoU8qjwcgN4F7ZhnBGvGxmj1mtx6t4", 
        "geometry": {
          "location": {
            "lat": -23.386702, 
            "lng": -51.9130553
          }, 
          "viewport": {
            "northeast": {
              "lat": -23.380512, 
              "lng": -51.8942602
            }, 
            "southwest": {
              "lat": -23.400035, 
              "lng": -51.91954029999999
            }
          }
        }, 
        "vicinity": "Zona 46", 
        "id": "96e48733bd8e9bedccb22ef8385d52b39c60b0f3", 
        "types": [
          "sublocality", 
          "political"
        ], 
        "icon": "http://maps.gstatic.com/mapfiles/place_api/icons/geocode-71.png"
      }, 
      {
        "name": "Zona 37", 
        "reference": "CnRvAAAABkugMEX-k1aUt1OgqAniijBE-Q-lZ4NA7QoLMQ4T_a95YVPrdyOHwG8hrd03Y71x5GM-5s4Y_Q3UQG4Cj33jteZw6miPMpnRLLdtwqPPYXrdERpVJ_achqMjeaEK8VRZ4GZWR4zr05vYr03_gXETLxIQD7tMjyQNKkxD3xf1ejG_DxoUG43xxmkn6JMs2pJ0fHyAtuNIExA", 
        "geometry": {
          "location": {
            "lat": -23.4005347, 
            "lng": -51.8998371
          }, 
          "viewport": {
            "northeast": {
              "lat": -23.3861241, 
              "lng": -51.8743202
            }, 
            "southwest": {
              "lat": -23.4235231, 
              "lng": -51.9151874
            }
          }
        }, 
        "vicinity": "Zona 37", 
        "id": "8eb03761c0a75c32f47521abfcd29b983afbdc0b", 
        "types": [
          "sublocality", 
          "political"
        ], 
        "icon": "http://maps.gstatic.com/mapfiles/place_api/icons/geocode-71.png"
      }
    ]
  }, 
  {
    "status": "OK", 
    "html_attributions": [
      "Listings by <a href=\"http://www.telelistas.net/\">Telelistas</a>"
    ], 
    "results": [
      {
        "name": "Zona 46", 
        "reference": "CnRuAAAAYfhmEu8x1-cLupiGTn8GSYx86ivmVR_LcXrxOsKss1knkip09JW7-KWbVjfYxhoxoOYC22Iq-LLoCBjlhCDlZ3wQtWM-reX3dCWtJHCeSuvtEtUSHcDm2n4V7zVV2ttsFf3W5KiTbZFOmQipLjJGDxIQILlr32NyJGSjh_LZoTOAwRoUwd3k7T4x-nETmy_mO_VJ-i8BVi4", 
        "geometry": {
          "location": {
            "lat": -23.386702, 
            "lng": -51.9130553
          }, 
          "viewport": {
            "northeast": {
              "lat": -23.380512, 
              "lng": -51.8942602
            }, 
            "southwest": {
              "lat": -23.400035, 
              "lng": -51.91954029999999
            }
          }
        }, 
        "vicinity": "Zona 46", 
        "id": "96e48733bd8e9bedccb22ef8385d52b39c60b0f3", 
        "types": [
          "sublocality", 
          "political"
        ], 
        "icon": "http://maps.gstatic.com/mapfiles/place_api/icons/geocode-71.png"
      }, 
      {
        "name": "Recanto da Sopa", 
        "reference": "CnRsAAAA5ZLls3srBNIzhR1wc7tksfJ13UWOrsQPahigeM79wpExzbhy-auwcGqOaGkADtElrloVLGP6oM80zWtKRrq_6l7pEDkderOSFnkGGaO-cg9xrpDguvfO0uoSsU96maCSgfjZ-ufjpHIOo67oBb_HlhIQdTtcFtNCR94iaFr0__I_ihoUyol3uEqFVbQQwfoHcAqbmqnV70A", 
        "geometry": {
          "location": {
            "lat": -23.392562, 
            "lng": -51.896508
          }
        }, 
        "vicinity": "Rua Rio S\u00e3o Francisco, 33 - Maring\u00e1", 
        "id": "81405c296a580b2ec06a55042e738e6b83b2bdd8", 
        "types": [
          "establishment"
        ], 
        "icon": "http://maps.gstatic.com/mapfiles/place_api/icons/generic_business-71.png"
      }, 
      {
        "name": "Jevant Moveis LTDA ME", 
        "reference": "CoQBcgAAAIF3H7WRbNy2aPH9wG46iIeezKq07tcb7G7dt38gVydyJlal5fCFr-nHCovJLk1YPa63_J0lpOpb6YZswM26y2UZqXvjFea8HY4jIWkWMgUbz0ctVldp8wv1JHyaa6Gw4IpW9mmkp-ncIMQ5LFpr5uqAtfS_aTXYrBfV4_JJF1okEhDMM_tqePJMetfHEns4pjrWGhSvHQEEZZSK2NzXfsktwB526gbIuA", 
        "geometry": {
          "location": {
            "lat": -23.392748, 
            "lng": -51.896851
          }
        }, 
        "opening_hours": {
          "open_now": false
        }, 
        "vicinity": "Rua Pion. Guarino Augusto Basseto, 2020 - Zona 37, Maring\u00e1", 
        "id": "f359f0579321bffe04ff163fc570653c4e6056ab", 
        "types": [
          "establishment"
        ], 
        "icon": "http://maps.gstatic.com/mapfiles/place_api/icons/generic_business-71.png"
      }, 
      {
        "name": "Vidra\u00e7aria Atual Vidros e Persianas", 
        "reference": "CpQBgQAAAIm91vZH2THvnJxK5FFjx9x3Yvo6lp22hE2SzYMUv4K3EtLLcj6AAjq6yYCGoGPPjiLqueqjtZpOSDsz00Y5g2bYxigc_bSuUzk6To_gRn2_P1NZIh1Qdpo4QfEACzZ98oh8KRrrdNPBKtFeC0B0Sy31tNI6xFzsCI8-IS7bKX_u38901M1SzaRjevcVEOUUVhIQme7w2AmO5yWi-XVnicTH4RoUGH5PAWxge0zke2UO-iC2F9uDnTs", 
        "geometry": {
          "location": {
            "lat": -23.392879, 
            "lng": -51.895723
          }
        }, 
        "vicinity": "Rua Rio S\u00e3o Francisco, 1284 - Conj. Res. Branca Vieira, Maring\u00e1", 
        "id": "af2c02531d0475d0d2601f4d6fdcd94726fcf8ec", 
        "types": [
          "store", 
          "establishment"
        ], 
        "icon": "http://maps.gstatic.com/mapfiles/place_api/icons/generic_business-71.png"
      }, 
      {
        "name": "Zona 37", 
        "reference": "CnRuAAAAiVQFqvi6zqPOTUyE8FD9p_CK7bhxmoP0iL0D2T7nQbRPxkjWxj5t9Wiha7-dM00qvB3ugt0e_CzrPhPXRUiIUx2h7b2k4g_iA4dOTwA1ZxlKPJxWHG_Wd1MDsfipudNaSJqmhkGyYnWqpzRaZIXSbBIQMU1cfQpc1ZTedl93molPfBoUIzBTdCrEURjEvlxUgv0YN4Rr3sI", 
        "geometry": {
          "location": {
            "lat": -23.4005347, 
            "lng": -51.8998371
          }, 
          "viewport": {
            "northeast": {
              "lat": -23.3861241, 
              "lng": -51.8743202
            }, 
            "southwest": {
              "lat": -23.4235231, 
              "lng": -51.9151874
            }
          }
        }, 
        "vicinity": "Zona 37", 
        "id": "8eb03761c0a75c32f47521abfcd29b983afbdc0b", 
        "types": [
          "sublocality", 
          "political"
        ], 
        "icon": "http://maps.gstatic.com/mapfiles/place_api/icons/geocode-71.png"
      }
    ]
  }, 
  {
    "status": "OK", 
    "html_attributions": [
      "Listings by <a href=\"http://www.telelistas.net/\">Telelistas</a>"
    ], 
    "results": [
      {
        "name": "Zona 46", 
        "reference": "CnRvAAAAe1tXbDuV4s-SEXahXd-81mmpgXmrOelxr0y0wM-bnltzbA8SC3hgHucx1CY2zSoxqe8c8D3zwsX4Rf4sXa6J5cdHE6v0YNvSf-So4wWf__lRpJJep0a6dUGWrdH_m3oShEJ1nQ0TBWdeY35lqMCGWRIQgHlhxHtwOAJOitsQeq74sRoU5LS_p9F3QRzTOLkbqCRXJ_j8h-w", 
        "geometry": {
          "location": {
            "lat": -23.386702, 
            "lng": -51.9130553
          }, 
          "viewport": {
            "northeast": {
              "lat": -23.380512, 
              "lng": -51.8942602
            }, 
            "southwest": {
              "lat": -23.400035, 
              "lng": -51.91954029999999
            }
          }
        }, 
        "vicinity": "Zona 46", 
        "id": "96e48733bd8e9bedccb22ef8385d52b39c60b0f3", 
        "types": [
          "sublocality", 
          "political"
        ], 
        "icon": "http://maps.gstatic.com/mapfiles/place_api/icons/geocode-71.png"
      }, 
      {
        "name": "Telemensagem Rede Vida", 
        "reference": "CoQBdQAAABCRI79YwSXKhCnjwBNQxSxjgfX-Vph9ZZuE3bSi1o4ZFDvbnruo-p_guFn2UaL1VU_uDT7LBbre9F9ArwSvMJlNpQ6bpJf2cU6faRNl3XS5asn0IpYXGgRiidkOioZrVyWZiC7t-k02VW0V2CVvdmFelPcFoxDDPPRKHBAC0rMREhAH9sAFPig-iRAU2kCh10DDGhQFX86HOQMC8-0Zoav9cJ_BasJzyQ", 
        "geometry": {
          "location": {
            "lat": -23.388627, 
            "lng": -51.89825
          }
        }, 
        "vicinity": "Rua Itaipu, 58 - Maring\u00e1", 
        "id": "2e2c2a6756715427a92e13bc7a876f8819cf6bb2", 
        "types": [
          "establishment"
        ], 
        "icon": "http://maps.gstatic.com/mapfiles/place_api/icons/generic_business-71.png"
      }, 
      {
        "name": "Buffet Fest Evandro", 
        "reference": "CoQBcgAAAMw3nlGn03ENIKg33HFQuK4jz-pFsd1C4SfuQ-oBsXcF5RtNTfHlPMbpk9JG8MzCFhgn1xKbM8JAfdSyn8cmcZRrKTnpbk9-9wYGiaKHmehRoy2tcFpz23ZtlBWMZef5gZJYiET0cLsde-o0m95tjgMeeEMWWGitqm1r8V7Qg90NEhCkkDMRDrMdcIAPgnMx3vYPGhS5dptfJoNbVpJ05jcB0KA2cGzzgA", 
        "geometry": {
          "location": {
            "lat": -23.388783, 
            "lng": -51.897875
          }
        }, 
        "vicinity": "Rua Itaipu, 18 - Ebenezer, Maring\u00e1", 
        "id": "30349200858030b2b76e7646eb551cb1fe6e8079", 
        "types": [
          "establishment"
        ], 
        "icon": "http://maps.gstatic.com/mapfiles/place_api/icons/generic_business-71.png"
      }, 
      {
        "name": "Omega Salgados", 
        "reference": "CnRsAAAA8R4lz3RGIlEh8A8BwXDj8NslrNsVtQKJYrgGRmKmhRaFj1aiLK4gAMt1wZ1-VuteGiVf_ASg2WWEH9vejBJKBtQ2BhAR4vnnUaDgB7TrebH2G3e7TV7Z6Q35NGgMEXdAf_Ja0VQTGwNTNg4Dky3RPRIQwS0YLdewg1dn9mUJqn_pVhoUcaosfdzvLqKlbQK3DRF8S9yjAKU", 
        "geometry": {
          "location": {
            "lat": -23.388276, 
            "lng": -51.899542
          }
        }, 
        "opening_hours": {
          "open_now": false
        }, 
        "vicinity": "Rua Itaipu, 75 - Zona 46, Maring\u00e1", 
        "id": "10a460eb96453d08f87fef701a9d6a356d7d708b", 
        "types": [
          "establishment"
        ], 
        "icon": "http://maps.gstatic.com/mapfiles/place_api/icons/generic_business-71.png"
      }, 
      {
        "name": "Vidra\u00e7aria Dione", 
        "reference": "CnRvAAAAqKIt5aAPXhtZ4eWB0KFcHpBBTCJxhZsP7UR-ZQpgGmrm4kjo7q11-nmG8kefj5SStQ4DPu_G57QS4qrBf4FtlnJXOYRmXWBV7sNvT4rjIPMk8AtgAHsFoBJuohDAYJQW9vg8K53tCTy6-ANyI_kj0BIQ9NoDrObGGjs4YhQQdYjTTxoUf76C2NCoWbJY_ixgHNKZuQu_VLU", 
        "geometry": {
          "location": {
            "lat": -23.389667, 
            "lng": -51.900434
          }
        }, 
        "vicinity": "Rua Pion. Porphirio de Moraes, 19 - Cj Res R Bernardi, Maring\u00e1", 
        "id": "63a88a95326de4969f772730dcf6c5beed6cf418", 
        "types": [
          "store", 
          "establishment"
        ], 
        "icon": "http://maps.gstatic.com/mapfiles/place_api/icons/generic_business-71.png"
      }, 
      {
        "name": "EMGITEC - Maquinas e Equipamentos", 
        "reference": "CoQBfwAAAPYQOWuHq2zP5D4PgMhDjQCsY-4Z_YQnlC-jNiLaOUEfnrFtiYVAD5H1QaXqhAWOREkdIg5ZKYLowdqNY7-Is2wOmsHkpjYrp4uYfz_-HYIgKs6SXVesVhmPawzgJ77RNpGniiekVvWzApuhxNAK6yTrMBcsYPOTySUiKo7t3ZXJEhC3eo2gScELDGzmQ2i7qKFvGhSrOI7Uj2mAn8g3_6f-v-716vCdng", 
        "geometry": {
          "location": {
            "lat": -23.387332, 
            "lng": -51.898496
          }
        }, 
        "opening_hours": {
          "open_now": false
        }, 
        "vicinity": "Av. Anel Vi\u00e1rio, 6405 - Zona 46, Maring\u00e1", 
        "id": "724255355e5cdefa9b8f0b37c7e4bf83ef6dd2ea", 
        "types": [
          "establishment"
        ], 
        "icon": "http://maps.gstatic.com/mapfiles/place_api/icons/generic_business-71.png"
      }, 
      {
        "name": "Zona 37", 
        "reference": "CnRvAAAAMu_xqBDvrEkrTdOMQIWL9COVmpn_3kQ6rYfef4y6gqgRYAaba_Im8QMXZ_-asEOUrdN-DySu202MRl-RzLp_6KSE6018BbPDBqnuIcKjbyYuqTx4I2qTYU7oeTAPOPN8oElEfa4FJnxxI9UUbNZpLhIQptoTww-Lp8MN-oSfn85V3xoU1vGs3BVDoTKrpIDeex8aSasNCLo", 
        "geometry": {
          "location": {
            "lat": -23.4005347, 
            "lng": -51.8998371
          }, 
          "viewport": {
            "northeast": {
              "lat": -23.3861241, 
              "lng": -51.8743202
            }, 
            "southwest": {
              "lat": -23.4235231, 
              "lng": -51.9151874
            }
          }
        }, 
        "vicinity": "Zona 37", 
        "id": "8eb03761c0a75c32f47521abfcd29b983afbdc0b", 
        "types": [
          "sublocality", 
          "political"
        ], 
        "icon": "http://maps.gstatic.com/mapfiles/place_api/icons/geocode-71.png"
      }
    ]
  }, 
  {
    "status": "OK", 
    "html_attributions": [
      "Listings by <a href=\"http://www.telelistas.net/\">Telelistas</a>"
    ], 
    "results": [
      {
        "name": "Zona 46", 
        "reference": "CnRuAAAA42C4v67F9tC9Rk-ZIsxg1CzZJQ-jH27zHMdRGnouMe8buYeWfOUQyrd5mw1y3V14rJXtrABodTNdBOHhd_iJcCIYtGSpaXV5o3L8v3SYd7CVmKkDKY73MPftsmLoY5MqhoHIzAZKOOEWl5VZvgwB4xIQG5sxSbiCAyCxHnnWaPg0KhoUDueePbM9HL7h5FNyAXE0-HrsrFQ", 
        "geometry": {
          "location": {
            "lat": -23.386702, 
            "lng": -51.9130553
          }, 
          "viewport": {
            "northeast": {
              "lat": -23.380512, 
              "lng": -51.8942602
            }, 
            "southwest": {
              "lat": -23.400035, 
              "lng": -51.91954029999999
            }
          }
        }, 
        "vicinity": "Zona 46", 
        "id": "96e48733bd8e9bedccb22ef8385d52b39c60b0f3", 
        "types": [
          "sublocality", 
          "political"
        ], 
        "icon": "http://maps.gstatic.com/mapfiles/place_api/icons/geocode-71.png"
      }, 
      {
        "name": "Galli Mudan\u00e7as", 
        "reference": "CnRtAAAArYF3sHt11xid1XSuNLZMaaEFw7YD9j0T5IaqSgPAD4uqlE3CTkmfeHbivjANV-0uz3CYbvyYd6SgnpfLloBWhmnbUexeF61-jQz-nLttOUa6wits5mjNEucok7PXIPN89iV3joODZS6QcKpRPDlz7BIQ2N8CvNiJA7InR1gSpXbOZhoUK3teEmdf7xAE14eK919M21ixSEE", 
        "geometry": {
          "location": {
            "lat": -23.392426, 
            "lng": -51.901729
          }
        }, 
        "vicinity": "Rua Rio S\u00e3o Francisco, 2778 - Cj Res B Vieira, Maring\u00e1", 
        "id": "894da227a9d39e4edd046e112c1df5511aa02ff1", 
        "types": [
          "storage", 
          "establishment"
        ], 
        "icon": "http://maps.gstatic.com/mapfiles/place_api/icons/generic_business-71.png"
      }, 
      {
        "name": "Guilheme Equipe de Seguran\u00e7a", 
        "reference": "CoQBegAAAGxG6KkX8DADKHA0K4sgtSyLRDQDF-QMHmYjBF1Qtl6UkyZWWcWu5cBae9cXRZ4bdEXdys75qnMbdfKx4wKXhkcYjlyQJy4lMzxVSYjdIyNu5z5JCGQYbMVdAM2OvRcs9utssQAiiG5TK00wMFpJ3Enu1ov3m601LJ6dRCJp0m6eEhCY9gUpctur5H1fdoEREukOGhQgh-03udMnJZOm62u_2pbOEDkC4w", 
        "geometry": {
          "location": {
            "lat": -23.393817, 
            "lng": -51.901005
          }
        }, 
        "vicinity": "Rua Rio Tocantins, 2567 - Maring\u00e1", 
        "id": "822a619e51614cb215577fe5a7bf8296b6c80441", 
        "types": [
          "establishment"
        ], 
        "icon": "http://maps.gstatic.com/mapfiles/place_api/icons/generic_business-71.png"
      }, 
      {
        "name": "Mudan\u00e7as Brasil", 
        "reference": "CnRtAAAAIlxcfrANqrAt5__FWkWcEcVrmNMBC95yyeg2ITPaBf_WLmrnvTH2a0FKzZ9Z-h6PSifTeIpKuEd5SFmmbGNhKX69WwkVlUwM5NiScc-asdrtqg-5ozDLN2xH8ZAkBcUVtxU4xmAf-MliuVLkIWfvMBIQ9E9jYwAaHtQyVguMsh3VrhoUKtcMCHM4z1qQhuIYRRzewBDvQLw", 
        "geometry": {
          "location": {
            "lat": -23.391472, 
            "lng": -51.900306
          }
        }, 
        "vicinity": "Rua Rio Purus, 36 - Lot Batel, Maring\u00e1", 
        "id": "1a6afe5c6f1dff9f3d5219031b1a907622d794f2", 
        "types": [
          "storage", 
          "establishment"
        ], 
        "icon": "http://maps.gstatic.com/mapfiles/place_api/icons/generic_business-71.png"
      }, 
      {
        "name": "Refrigera\u00e7\u00e3o Com\u00e9rcio de Eletrodom\u00e9sticos WM", 
        "reference": "CpQBjgAAABt8VWjDX7QGtZ5Ju78LyGNzAbaWjmeMMPOySHOAZNS66r6mHepXawIZ3Axp0EA26VDWBNmqyUX_WHj2w_FgIDaHKJlC9Wqr2uQh14-Z_o1gnuqgfljdxkeEFFjY4bFq0R45hMeMWEbulgxMmQinWnXgNBhTJkRDFmySsWA69YK7HkVpTF8WDE4qFupnDEsvdBIQAsI3fukxpm4YzjWw6TLR9RoUyQ55ZhaLiBQ2LhcwO4BF23rJnOg", 
        "geometry": {
          "location": {
            "lat": -23.394007, 
            "lng": -51.900658
          }
        }, 
        "vicinity": "Rua Rio Tocantins, 2507 - cj Res P C Filho, Maring\u00e1", 
        "id": "bce4edd0de6dd80b032bfce1812b4c0b141522df", 
        "types": [
          "establishment"
        ], 
        "icon": "http://maps.gstatic.com/mapfiles/place_api/icons/generic_business-71.png"
      }, 
      {
        "name": "V L DISTRIBUIDORA LTDA", 
        "reference": "CoQBcwAAABTnt8GPPXvNCGI2ymxLCoZcUjIlzLf7XseTGTHUWjgv-AtgI2EOQyJYRCTnk-C3KfngYbkU4bhBAWM8S8i0JNCIcKafsRjZ_hmb54S5OPkCl9gzt7-Wx2UP1F30d2B003E_-FppYB0e8QGY5dyQibpRjZI6WAaeNc-dgRWDFIUbEhCMfOq0b_skkF0uwwdUiABhGhTtAf4G3qqzObyaIivtt-YmYN2ChQ", 
        "geometry": {
          "location": {
            "lat": -23.393876, 
            "lng": -51.900516
          }
        }, 
        "vicinity": "Rua Rio Tocantins, 2492 - Zona 37, Maring\u00e1", 
        "id": "634ea387b54e799325a3fa52225bfb1141729d82", 
        "types": [
          "establishment"
        ], 
        "icon": "http://maps.gstatic.com/mapfiles/place_api/icons/generic_business-71.png"
      }, 
      {
        "name": "Valdereza S de Souza Cosm\u00e9ticos", 
        "reference": "CoQBfgAAAI_vBCVabyV2NTnIifjShB2YwScxiEgybe1onA9maf-oHcoRjfkHW1C6IhvLt0IlslI_um1_CsfsF1Vm6AKW2RP8PIjsVou4nKd9ZciW34LDoEEpzPV06eZsf8fvlaNcH9ziWOP2saD0mo3gxVjBPinfMGjGRzzLc0KYoIi8pvVCEhDCSwDHc9wSUUacn181FfiRGhT6lr9UDQ-hWRPmeDtf4IO4UoRAig", 
        "geometry": {
          "location": {
            "lat": -23.39247, 
            "lng": -51.900963
          }
        }, 
        "vicinity": "Rua Dinorah Knabben Perin, 92 - Maring\u00e1", 
        "id": "581f47b0da55a570c31d666d61ca3982496a0f7f", 
        "types": [
          "store", 
          "establishment"
        ], 
        "icon": "http://maps.gstatic.com/mapfiles/place_api/icons/generic_business-71.png"
      }, 
      {
        "name": "Mudan\u00e7as Irineu", 
        "reference": "CnRuAAAAr6GT5lPUd--Pv3ZWnRj1I3xTRP-n3quq-G_E8gwrz9ISCSLcOgNyMfgmFv_Bz95Grky-qWJns9Zdm5i6MKFEmY1gRKdWL-MYvGr31EL5-8B4aIH5ZPOxci9XdqbOAzLrcFCSFU-hkyi3AUTDpOkHPBIQMGLYJpBB8M3TC62le6whqBoUzReCK0FYFYurGot4jue2d8723Cg", 
        "geometry": {
          "location": {
            "lat": -23.391408, 
            "lng": -51.900425
          }
        }, 
        "vicinity": "Rua Rio Purus, 18 - Lot Batel, Maring\u00e1", 
        "id": "eb0fcba37b0351f7d05e08d6ff42a94c8c7dea3d", 
        "types": [
          "storage", 
          "establishment"
        ], 
        "icon": "http://maps.gstatic.com/mapfiles/place_api/icons/generic_business-71.png"
      }, 
      {
        "name": "Jc Tendas", 
        "reference": "CnRmAAAAhsMCN1TjnQXPGrkIUuBtLXk72XhyVoPCOcTEHE07IkETHDUoUnLpvjxr6QUU2eoPfnYYpHr2E4nWO7JC1Z0lg11BBG7chC8n30RdXrZO5sVAHvdqlld48QvN4BUx53oaxoDU6mPvF5a4SU7hqfWeTRIQCsWKM2iXDTJWhxUwDC-CQxoUwqOq7ZKfoiotkoFkDL9-4PE-xeI", 
        "geometry": {
          "location": {
            "lat": -23.393779, 
            "lng": -51.901075
          }
        }, 
        "vicinity": "Rua Rio Tocantins, 2579 - Maring\u00e1", 
        "id": "adcce1aed2a5cf087099de4a005343354a49268f", 
        "types": [
          "establishment"
        ], 
        "icon": "http://maps.gstatic.com/mapfiles/place_api/icons/generic_business-71.png"
      }, 
      {
        "name": "Waldevir Brust", 
        "reference": "CnRsAAAA9baL2aktw2xvKID5JryS59GjdcCQ_Zjhds17xAqa4MgiJT_kiOtZDiVozm6-_E0CUDSInCrlmFRVWMNAcH5Exf60qzxGEaFUZIYMf7SAoTdNMzjxaEqciR9WLXDmg0VSyvPe_JfwOeIX63BBU4HtwhIQQweaiXdP6F48SOQ0j4JL8xoUifDtqAwGV62cLloXwR9taNEunLY", 
        "geometry": {
          "location": {
            "lat": -23.393205, 
            "lng": -51.900507
          }
        }, 
        "vicinity": "Rua Rio Amazonas, 178 - Maring\u00e1", 
        "id": "c0f322f02bc0c4f4e8f09a57c00cb500729a2734", 
        "types": [
          "establishment"
        ], 
        "icon": "http://maps.gstatic.com/mapfiles/place_api/icons/generic_business-71.png"
      }, 
      {
        "name": "Zona 37", 
        "reference": "CnRuAAAAN8ekp8wdE5WPeBvPhkyk-UuYcXtTSbRmZE-Ay6yV_uTCwKVO89JWjkCigi4PdIx_e2nYDUqqpm0u-uH0D29Ux2ucAys8ZVVocuYUovaOkEoEY8znGlMkx_idd_ipTzfe6y89vAGNjUui4SKPI_HPkxIQ-7fvPu9h7h2DKvl83FrfmhoUPY3wtLEQ2nPbdz6M3-WO5y-Gcqw", 
        "geometry": {
          "location": {
            "lat": -23.4005347, 
            "lng": -51.8998371
          }, 
          "viewport": {
            "northeast": {
              "lat": -23.3861241, 
              "lng": -51.8743202
            }, 
            "southwest": {
              "lat": -23.4235231, 
              "lng": -51.9151874
            }
          }
        }, 
        "vicinity": "Zona 37", 
        "id": "8eb03761c0a75c32f47521abfcd29b983afbdc0b", 
        "types": [
          "sublocality", 
          "political"
        ], 
        "icon": "http://maps.gstatic.com/mapfiles/place_api/icons/geocode-71.png"
      }
    ]
  }, 
  {
    "status": "OK", 
    "html_attributions": [
      "Listings by <a href=\"http://www.telelistas.net/\">Telelistas</a>"
    ], 
    "results": [
      {
        "name": "Zona 46", 
        "reference": "CnRvAAAA5VeIjuTSzTQ4Za_Yfn6AhyzUbYUXjVu4KN0113f-zqUtBR4Vq-CCeQw_VOpbqe5f3u8D9PgrCSkh72IK-7ICDruFrWhxdO95qu3Ra7UMzrcLDMN9P5XEbVbVUEvUIUatORtK_vM3zTi5aUS-ZwgWexIQkembWVyLMnpennTD8X8GfRoUkcRHnrKIK8JujIJyXkNI-fozSV4", 
        "geometry": {
          "location": {
            "lat": -23.386702, 
            "lng": -51.9130553
          }, 
          "viewport": {
            "northeast": {
              "lat": -23.380512, 
              "lng": -51.8942602
            }, 
            "southwest": {
              "lat": -23.400035, 
              "lng": -51.91954029999999
            }
          }
        }, 
        "vicinity": "Zona 46", 
        "id": "96e48733bd8e9bedccb22ef8385d52b39c60b0f3", 
        "types": [
          "sublocality", 
          "political"
        ], 
        "icon": "http://maps.gstatic.com/mapfiles/place_api/icons/geocode-71.png"
      }, 
      {
        "name": "Buffet Fest Evandro", 
        "reference": "CoQBcgAAAFyLutbP5tanpR5gVDJcSmtkmNBdHONJJ2iyM-nVIV2GXuw_-H5M3yE3T2gDoDcFrkgy3BuSevANmc3uSB4i6bIEXi5VFT6P5SiNL3IHZfaRdlF_GNXH_kGu3-81bVUwFxmndtSj05C5eecweyiUXyUS-a01g57DGAHs4oumJwUWEhALPSgX9ZJVDClJrcFfQa2EGhQx0yw2RF6UtREYzQDN_oRsphJ3lw", 
        "geometry": {
          "location": {
            "lat": -23.388783, 
            "lng": -51.897875
          }
        }, 
        "vicinity": "Rua Itaipu, 18 - Ebenezer, Maring\u00e1", 
        "id": "30349200858030b2b76e7646eb551cb1fe6e8079", 
        "types": [
          "establishment"
        ], 
        "icon": "http://maps.gstatic.com/mapfiles/place_api/icons/generic_business-71.png"
      }, 
      {
        "name": "Zona 37", 
        "reference": "CnRvAAAAvlEMoqiHOr9meCKXSew1B5v0TYGRHUubgUelB5pLZbDHOQL32MZZ5WeXfJHqKdI2EMvUAm_W7w5_FJqut0ZMJlgk03K-L2Ug13Mbden9w25ycNvA-uSaDp4GUv1xj__WoF45Pj0OZPDJtgULGnVs6RIQfEuEBQHv-lM550JH9bVYwRoUUfwQ8Kb9wbdoNjeE8Dx89d3wakM", 
        "geometry": {
          "location": {
            "lat": -23.4005347, 
            "lng": -51.8998371
          }, 
          "viewport": {
            "northeast": {
              "lat": -23.3861241, 
              "lng": -51.8743202
            }, 
            "southwest": {
              "lat": -23.4235231, 
              "lng": -51.9151874
            }
          }
        }, 
        "vicinity": "Zona 37", 
        "id": "8eb03761c0a75c32f47521abfcd29b983afbdc0b", 
        "types": [
          "sublocality", 
          "political"
        ], 
        "icon": "http://maps.gstatic.com/mapfiles/place_api/icons/geocode-71.png"
      }
    ]
  }, 
  {
    "status": "OK", 
    "html_attributions": [
      "Listings by <a href=\"http://www.telelistas.net/\">Telelistas</a>"
    ], 
    "results": [
      {
        "name": "Zona 46", 
        "reference": "CnRvAAAAulR2Bvi_ZlYjVez0dEQ5VbpwSEGB3q_xm9TvZLqyvtFRMV_2JL0uVFIyx614VGFoxs3lxdJA9AASSV-npqM9k1Il-H9wMbbX6XU09QWc-dXujFBkBuK2x4x5IDGiXb65bH9P1ul8yNX6wb_lZOii9hIQQO455TD7wQrCNqedWvMsThoUpZ3noNXh9JG9Sl9r4a7XZg4LEdk", 
        "geometry": {
          "location": {
            "lat": -23.386702, 
            "lng": -51.9130553
          }, 
          "viewport": {
            "northeast": {
              "lat": -23.380512, 
              "lng": -51.8942602
            }, 
            "southwest": {
              "lat": -23.400035, 
              "lng": -51.91954029999999
            }
          }
        }, 
        "vicinity": "Zona 46", 
        "id": "96e48733bd8e9bedccb22ef8385d52b39c60b0f3", 
        "types": [
          "sublocality", 
          "political"
        ], 
        "icon": "http://maps.gstatic.com/mapfiles/place_api/icons/geocode-71.png"
      }, 
      {
        "name": "Recanto da Sopa", 
        "reference": "CnRtAAAAI3nnYifWBiESJ6zbAolI_pt17qQzjPyMkcwARAASSlTNoFwYSHJWXAq0vzBHye7tuJDBVlHecAXsv2qKi6RNG0_ULFJLRH89zRnRMiOQjTj129c_dJD4G3J6tUOtkaVCxWXV-XqI40y9l1Fb64MS3RIQvjdCBnz9vLBgluEFX2oMGRoUiKSEdOgNT4CwBLTVmFBvFSPFCVg", 
        "geometry": {
          "location": {
            "lat": -23.392562, 
            "lng": -51.896508
          }
        }, 
        "vicinity": "Rua Rio S\u00e3o Francisco, 33 - Maring\u00e1", 
        "id": "81405c296a580b2ec06a55042e738e6b83b2bdd8", 
        "types": [
          "establishment"
        ], 
        "icon": "http://maps.gstatic.com/mapfiles/place_api/icons/generic_business-71.png"
      }, 
      {
        "name": "Jevant Moveis LTDA ME", 
        "reference": "CoQBcwAAAIohvBLHK18Tska7dnRPAW6l8I0YiOad6VDqY1geudyijoWZO9glGxXGn5vqHlZ9Eq0uqt1CbNi8EWQNEzabxsiU4LVnSH2COOZbYd381TAGUtz8O7oSq4Wd0hXIA9hhedyWhKwGS__fe5YmKmNhkGfb-bYXr_sAdAdEDRGzspVoEhA1eV2BaxSuCuapQJ_FrQD3GhTmH9hCZSRDJkhjzGGPTdAi2tEu8A", 
        "geometry": {
          "location": {
            "lat": -23.392748, 
            "lng": -51.896851
          }
        }, 
        "opening_hours": {
          "open_now": false
        }, 
        "vicinity": "Rua Pion. Guarino Augusto Basseto, 2020 - Zona 37, Maring\u00e1", 
        "id": "f359f0579321bffe04ff163fc570653c4e6056ab", 
        "types": [
          "establishment"
        ], 
        "icon": "http://maps.gstatic.com/mapfiles/place_api/icons/generic_business-71.png"
      }, 
      {
        "name": "Vidra\u00e7aria Atual Vidros e Persianas", 
        "reference": "CpQBggAAAENN6Rem3HgwkYZNOO5mm0AZ8CvXuUVcRBBTqt76LYGS0moSDyJXm48rl9Lj7VguF7KP-Og5st_LcZCgnDDZQ_FnPYX5L8C3dmop0v1drcxs_GpPQBgFenuyehE2Up6v7-BJQ8eaVy4kRnoeyYt1ufQaJTDywNX4fUkyFFU6C8bMIhkwJtvaJxwFkIgGG2Gt3RIQQjZnor5i0NpWdghkfzBOchoU5GT_xZ9uhfZqRWRTpt6EoUC86NM", 
        "geometry": {
          "location": {
            "lat": -23.392879, 
            "lng": -51.895723
          }
        }, 
        "vicinity": "Rua Rio S\u00e3o Francisco, 1284 - Conj. Res. Branca Vieira, Maring\u00e1", 
        "id": "af2c02531d0475d0d2601f4d6fdcd94726fcf8ec", 
        "types": [
          "store", 
          "establishment"
        ], 
        "icon": "http://maps.gstatic.com/mapfiles/place_api/icons/generic_business-71.png"
      }, 
      {
        "name": "Zona 37", 
        "reference": "CnRvAAAAgOASL_L65BgCQHLDa1dTORee9zwi3dhN_FhPqUxxuYUSzEN1Efro4dQ1PQ2Sf6y-6LOqOI5EPPjGhCVXkSZWoboMfPSWlOTfN1Wj4LOvYgwhPwXGrpGKoa-bL9_U1n6iPrX-oUCW0RGqviUSb2-ozxIQ427w4tpKA9dqHr28zaueshoUp9omq6ojMq-LPyHbH_mR4u7jh3w", 
        "geometry": {
          "location": {
            "lat": -23.4005347, 
            "lng": -51.8998371
          }, 
          "viewport": {
            "northeast": {
              "lat": -23.3861241, 
              "lng": -51.8743202
            }, 
            "southwest": {
              "lat": -23.4235231, 
              "lng": -51.9151874
            }
          }
        }, 
        "vicinity": "Zona 37", 
        "id": "8eb03761c0a75c32f47521abfcd29b983afbdc0b", 
        "types": [
          "sublocality", 
          "political"
        ], 
        "icon": "http://maps.gstatic.com/mapfiles/place_api/icons/geocode-71.png"
      }
    ]
  }, 
  {
    "status": "OK", 
    "html_attributions": [
      "Listings by <a href=\"http://www.telelistas.net/\">Telelistas</a>"
    ], 
    "results": [
      {
        "name": "Zona 46", 
        "reference": "CnRuAAAAl-Xs8H-Wf7lke75FLjW8lQYMEcUWkrkqxrUXVq2-fsWrc9-9r5iX9isKH41FfiOkYS_3LInM57krZeWq8sW3fIkHMVo7TKspL35JePOBxvVKaoBbEzjRTtnMvJceQSK68mf2v_SoiPbkxLiLSQE1SRIQb-JjKt9B_FbmOEwwwvTKWBoUSfAtbX6D0afPmGa9Pk5CgIDRyZA", 
        "geometry": {
          "location": {
            "lat": -23.386702, 
            "lng": -51.9130553
          }, 
          "viewport": {
            "northeast": {
              "lat": -23.380512, 
              "lng": -51.8942602
            }, 
            "southwest": {
              "lat": -23.400035, 
              "lng": -51.91954029999999
            }
          }
        }, 
        "vicinity": "Zona 46", 
        "id": "96e48733bd8e9bedccb22ef8385d52b39c60b0f3", 
        "types": [
          "sublocality", 
          "political"
        ], 
        "icon": "http://maps.gstatic.com/mapfiles/place_api/icons/geocode-71.png"
      }, 
      {
        "name": "Recanto da Sopa", 
        "reference": "CnRsAAAAI_H0ZIHVo80TVTS6Q9ea5-KRCixJstwzzRQEEoPWoK9him0zovPJI9s02qxsV0nneLMMDxMks95lMb-YwahaX2NEADyo5QQHN2U76Q0OC-XY01kcDMJ2mBFimxwzA8LS8jrBfC-GifJEw__c9AaY1BIQNxog584di5JwpF2Vwzf-4RoUZt8673FamF72z6bJ45-1zhyvMhE", 
        "geometry": {
          "location": {
            "lat": -23.392562, 
            "lng": -51.896508
          }
        }, 
        "vicinity": "Rua Rio S\u00e3o Francisco, 33 - Maring\u00e1", 
        "id": "81405c296a580b2ec06a55042e738e6b83b2bdd8", 
        "types": [
          "establishment"
        ], 
        "icon": "http://maps.gstatic.com/mapfiles/place_api/icons/generic_business-71.png"
      }, 
      {
        "name": "Jevant Moveis LTDA ME", 
        "reference": "CoQBcgAAAD3KlAjNrTgRJ9MIXLppTRzKiisG2IaGOlsLWbKTniPlcsjS2DSnHXUoNeeCNJgvie0Ndzjd1gZAdqtyCgoDF77U8KSoBOArK_acuf-kZ8sb9ZOzTirjYdbPqvy6LNUCd6cDdAvifxioIUo6hMKL6nspI-hl539cjDFVh6wE1AD5EhAGWTBuH0FvAwe_92HUP1GmGhTx2CDQx6ORdrWVuutGPTThpZxeew", 
        "geometry": {
          "location": {
            "lat": -23.392748, 
            "lng": -51.896851
          }
        }, 
        "opening_hours": {
          "open_now": false
        }, 
        "vicinity": "Rua Pion. Guarino Augusto Basseto, 2020 - Zona 37, Maring\u00e1", 
        "id": "f359f0579321bffe04ff163fc570653c4e6056ab", 
        "types": [
          "establishment"
        ], 
        "icon": "http://maps.gstatic.com/mapfiles/place_api/icons/generic_business-71.png"
      }, 
      {
        "name": "Vidra\u00e7aria Atual Vidros e Persianas", 
        "reference": "CpQBgQAAAIPTM5PIBtdH1SosJv_tkQA5Z93eFk2oOiSZ8kwsD1jJtiwfQ9CODTbDmT2udFfsWjbZLyDBHbLGEZ6JGZEajOoaV5dYfMXoDf1GxW89lCXWqCXMV4cABAPJrdTGlnwrJ8mO2gqf8_mw6kbWCZr41YgkfmEIy_XUqGjFVJ163qxt9dS-x3eazzuQ8ScSJcO6ehIQvUucbQ9bqxwDqOe4P_TVthoUmRK8B1xnsjvThk_5zKmN5S5oOW8", 
        "geometry": {
          "location": {
            "lat": -23.392879, 
            "lng": -51.895723
          }
        }, 
        "vicinity": "Rua Rio S\u00e3o Francisco, 1284 - Conj. Res. Branca Vieira, Maring\u00e1", 
        "id": "af2c02531d0475d0d2601f4d6fdcd94726fcf8ec", 
        "types": [
          "store", 
          "establishment"
        ], 
        "icon": "http://maps.gstatic.com/mapfiles/place_api/icons/generic_business-71.png"
      }, 
      {
        "name": "Zona 37", 
        "reference": "CnRuAAAA5cd48CE8vFHyDz7tXDGjJvfAsj1vh9VUDSOm0AtbaY7iGIs0CqOG5YYSoEFZUb7VYxN5r4BUf0Vpk0jJniA0Wyr16Fo62pRRSytekN_8VXASfn9Re00Jiq-Lr1NKP1P3dUr3YPnfTp58L-LOw_BUCxIQX0aY-GBwWFEdeoEh2ynBSBoUp01s8d3y_TsdJkhOCqxEf3p-R7I", 
        "geometry": {
          "location": {
            "lat": -23.4005347, 
            "lng": -51.8998371
          }, 
          "viewport": {
            "northeast": {
              "lat": -23.3861241, 
              "lng": -51.8743202
            }, 
            "southwest": {
              "lat": -23.4235231, 
              "lng": -51.9151874
            }
          }
        }, 
        "vicinity": "Zona 37", 
        "id": "8eb03761c0a75c32f47521abfcd29b983afbdc0b", 
        "types": [
          "sublocality", 
          "political"
        ], 
        "icon": "http://maps.gstatic.com/mapfiles/place_api/icons/geocode-71.png"
      }
    ]
  }, 
  {
    "status": "OK", 
    "html_attributions": [
      "Listings by <a href=\"http://www.telelistas.net/\">Telelistas</a>"
    ], 
    "results": [
      {
        "name": "Zona 37", 
        "reference": "CnRuAAAAmJ29gr-_-Jew9W9hMuVFpU0cGw1tRW2grzqJ9hN8aHYY5B-cnjTqs6KG1beD985IHHZsche9CX52kUkoF0ZOPflI4alvrtL9yx1QolOKIkqGWEj23eKuMoJsV8hcm78H7AuWJ9cLYp5Pz98IOhiInRIQewOu4GF3f8xUmRW2wxsVfhoU5QxXSoYvF2benWzFd4nOSBxTN6w", 
        "geometry": {
          "location": {
            "lat": -23.4005347, 
            "lng": -51.8998371
          }, 
          "viewport": {
            "northeast": {
              "lat": -23.3861241, 
              "lng": -51.8743202
            }, 
            "southwest": {
              "lat": -23.4235231, 
              "lng": -51.9151874
            }
          }
        }, 
        "vicinity": "Zona 37", 
        "id": "8eb03761c0a75c32f47521abfcd29b983afbdc0b", 
        "types": [
          "sublocality", 
          "political"
        ], 
        "icon": "http://maps.gstatic.com/mapfiles/place_api/icons/geocode-71.png"
      }, 
      {
        "name": "Escola Eximius Ensino Fundamental", 
        "reference": "CoQBfwAAAO2z7kGpHYBCARFuJJ2tz9WHCPcFrVxMiHIMpbJkPqxySWs-AHbRR5SYvh2RhN8cWcsydf17bFgljpaCoS27UTnflUJ-trlfi28wIJWJAPKkzGcrQGBpmiexp-15UTT-d4u2eaYGF2tn8EtJeH2o5FneF3nX49hFyBv8Ba5z9--5EhBs2Giz3UjCEKNJegm-fHisGhR4flTsLQSAtvb-fch5TKAc7w61Ag", 
        "geometry": {
          "location": {
            "lat": -23.393726, 
            "lng": -51.892623
          }
        }, 
        "vicinity": "Rua Rio Maca\u00fabas, 500 - Parque Residencial T, Maring\u00e1", 
        "id": "68d7112eddda82b82908ead01153f6858238fc00", 
        "types": [
          "school", 
          "establishment"
        ], 
        "icon": "http://maps.gstatic.com/mapfiles/place_api/icons/generic_business-71.png"
      }, 
      {
        "name": "Eletroames", 
        "reference": "CnRnAAAAIjlkqE_8BCx5ft1IO68w5QEI265OZVuCSNWLsZI0sXcq4lH8UcPN-jDSznq89xtZg-RA6JbkCaJQwj4BG-sw_16nvmo37n3RAwU104SN2NxeunEzQoPIe6dEV5jQFp48YrvflADWGQwo-e91uHY-nhIQrcg-6tiz2_ym9MCQRYj2PxoUvBr9eL2n7w--3EGF448R_7MU3eY", 
        "geometry": {
          "location": {
            "lat": -23.394836, 
            "lng": -51.893229
          }
        }, 
        "opening_hours": {
          "open_now": false
        }, 
        "vicinity": "Rua Pioneiro Guarino Augusto Basseto, N\u00ba 2476, Maring\u00e1", 
        "id": "a2a01f193737084fb7d543836e9cf078a397d93a", 
        "types": [
          "electrician", 
          "establishment"
        ], 
        "icon": "http://maps.gstatic.com/mapfiles/place_api/icons/generic_business-71.png"
      }, 
      {
        "name": "Biscuit", 
        "reference": "CnRlAAAAxrwCtGsQ9dd45PSBiOsndnFRLLolTo2nRQ2uLSVwdFEVvN7SDrDD1iUsQOrInQKWxSKQtDdxggsHHm_1UyjgDzT3zmc2w9dStF-Qma8MaZKc3Vj51pVelIEGMdFsKjK6eHEb53O0hwKhfxP7IyeHmRIQ1MfzHhNn51txcPtH4ZLruhoU0lygbIXDjROmNqKSZUHmazkRHvI", 
        "geometry": {
          "location": {
            "lat": -23.393551, 
            "lng": -51.890814
          }
        }, 
        "vicinity": "Rua Cooleiros, 142 - Zona 37, Maring\u00e1", 
        "id": "371e761b37bcca79ebf09679a11b4b61ce3e9762", 
        "types": [
          "establishment"
        ], 
        "icon": "http://maps.gstatic.com/mapfiles/place_api/icons/generic_business-71.png"
      }, 
      {
        "name": "Maring\u00e1", 
        "reference": "CnRvAAAA_sOk556S9u5gCX103P-YJH-iqMx2x-fy6x_aLid0PTLk_nlMxBsUylBoKCcaZK8qsPejrkjVkEZ6ZIK7BpEm0TsqQWSrG7iClBbX7rbxTyPekfFLM5b-51qP1kgiCaVL8IRwXk-izPTtKnqC0T5FaBIQkBSBMC5YvdIj1i-Ed6s-_RoULN74h8YZtjTKqa-kIBL77IKUI0M", 
        "geometry": {
          "location": {
            "lat": -23.427304, 
            "lng": -51.9375047
          }, 
          "viewport": {
            "northeast": {
              "lat": -23.25344, 
              "lng": -51.835463
            }, 
            "southwest": {
              "lat": -23.558014, 
              "lng": -52.1011961
            }
          }
        }, 
        "vicinity": "Maring\u00e1", 
        "id": "24b5b48c412af5805a55e4237119cc41424a7773", 
        "types": [
          "locality", 
          "political"
        ], 
        "icon": "http://maps.gstatic.com/mapfiles/place_api/icons/geocode-71.png"
      }
    ]
  }
]